timestamp,lat,lon,alt,roll_body,pitch_body,yaw_body,roll_speed,pitch_speed,yaw_speed,actuators_output_0,actuators_output_1,actuators_output_2,actuators_output_3,actuators_output_4,actuators_output_5,actuators_output_6,actuators_output_7,actuators_output_8,actuators_output_9,actuators_output_10,actuators_output_11,sensor_gyro_rad_0,sensor_gyro_rad_1,sensor_gyro_rad_2,sensor_acc_0,sensor_acc_1,sensor_acc_2,cpuload
3422570398.0,47.397743493157165,8.545593307985198,31.036436,0.025121883,-0.11760454,0.6318806,-0.021528138,-0.020760117,0.020549031,1554.0,1564.0,1542.0,1565.0,1500.0,1500.0,900.0,900.0,1500.0,1500.0,1500.0,1500.0,0.043101326,-0.076125026,-0.03149839,0.22274882,-0.6231289,-10.643798,0.32588398
3423162397.0,47.3977435306467,8.54559382067364,31.557224,0.0055454425,-0.057835344,0.6318805,-0.062448405,0.10291338,0.018603975,1622.0,1468.0,1476.0,1619.0,1500.0,1500.0,900.0,900.0,1500.0,1500.0,1500.0,1500.0,-0.064284764,0.15241838,0.00082332303,0.02035619,0.3145743,-10.256704,0.33857602
3423570398.0,47.39774431435127,8.545594280776635,31.975214,-0.009830434,-0.040619787,0.6318805,-0.027925119,-0.022919906,-0.0012221695,1535.0,1572.0,1572.0,1514.0,1500.0,1500.0,900.0,900.0,1500.0,1500.0,1500.0,1500.0,0.112142585,-0.058530126,-0.02774338,-0.1462443,-0.5376329,-9.984995,0.33229202
3424170396.0,47.39774616328788,8.545592691905192,32.655067,0.02796015,-0.030858869,0.597234,-0.020384116,0.038414147,0.016101882,1524.0,1540.0,1531.0,1582.0,1500.0,1500.0,900.0,900.0,1500.0,1500.0,1500.0,1500.0,-0.1465986,-0.039118845,0.022405764,0.06346275,1.261494,-9.870409,0.333174
3424570397.0,47.397746612130376,8.545593982240364,33.13154,0.012025823,-0.017034248,0.597234,0.11122155,0.025179097,-0.048974067,1534.0,1565.0,1569.0,1561.0,1500.0,1500.0,900.0,900.0,1500.0,1500.0,1500.0,1500.0,0.09652235,-0.098847784,-0.033670433,-0.104398966,-1.5967697,-11.073809,0.32775998
3425162397.0,47.397746588462574,8.545595318439226,33.87049,0.004841407,-0.013017138,0.59723395,0.06936454,0.03513043,-0.027343389,1523.0,1577.0,1587.0,1521.0,1500.0,1500.0,900.0,900.0,1500.0,1500.0,1500.0,1500.0,0.1815735,0.055887558,-0.05979735,0.11204772,-0.8402895,-9.137888,0.33928347
3425570397.0,47.39774672815921,8.545596028170056,34.36324,0.0137239825,-0.0071102474,0.59723395,0.06303856,-0.027743038,-0.0051205065,1583.0,1563.0,1579.0,1560.0,1500.0,1500.0,900.0,900.0,1500.0,1500.0,1500.0,1500.0,-0.110321864,0.045411024,-0.012031801,0.043885905,0.16982508,-9.811621,0.3279575
3426170397.0,47.397746901769146,8.545596048037007,35.135967,0.038405735,-0.0075933784,0.597234,0.20108943,0.10946326,-0.014194907,1569.0,1560.0,1569.0,1561.0,1500.0,1500.0,900.0,900.0,1500.0,1500.0,1500.0,1500.0,0.06562635,0.008645142,-0.021036483,0.20126349,0.7708404,-9.362773,0.330472
3426562398.0,47.39774667491778,8.545597814659295,35.6672,-0.0040095747,-0.004028548,0.59723395,-0.068594694,-0.02321412,-0.010341317,1566.0,1587.0,1543.0,1587.0,1500.0,1500.0,900.0,900.0,1500.0,1500.0,1500.0,1500.0,0.002347757,-0.029631123,-0.012836799,-0.38014394,-2.4163888,-8.311782,0.33150804
3427170397.0,47.39774615195408,8.545601395994042,36.72321,-0.048739076,0.010652851,0.59723395,-0.054460157,0.0667117,-0.012615927,1735.0,1605.0,1644.0,1701.0,1500.0,1500.0,900.0,900.0,1500.0,1500.0,1500.0,1500.0,-0.1089717,0.019577757,-0.052914217,0.45651725,0.44021255,-12.612979,0.34197217
3427562398.0,47.39774657813084,8.545601063903268,37.70565,0.01198065,-0.002415659,0.5972339,0.13506581,-0.047391098,0.005379983,1686.0,1658.0,1631.0,1705.0,1500.0,1500.0,900.0,900.0,1500.0,1500.0,1500.0,1500.0,0.13667452,-0.11397517,0.054434385,-0.4700007,1.2644007,-10.032834,0.32999402
3428170397.0,47.39774754055454,8.545597584879456,39.34513,0.0266678,-0.00074164337,0.597234,-0.07486993,0.0011201905,0.0033287788,1558.0,1697.0,1677.0,1572.0,1500.0,1500.0,900.0,900.0,1500.0,1500.0,1500.0,1500.0,0.13290487,-0.01713,-0.024063354,0.086553976,-0.2676954,-9.764655,0.33611798
3428562397.0,47.39774759129643,8.545596267343932,40.36889,0.020875083,-0.012927752,0.59723395,-0.05255217,-0.032802165,-0.018074626,1632.0,1654.0,1623.0,1666.0,1500.0,1500.0,900.0,900.0,1500.0,1500.0,1500.0,1500.0,-0.03164461,-0.07817491,-0.0035924981,-0.1156403,0.35950068,-10.334961,0.3292963
3429170397.0,47.39774571325261,8.545597648729386,42.066223,-0.040080275,-0.021911535,0.59723395,-0.08682719,-0.02241793,0.0013918637,1669.0,1594.0,1626.0,1654.0,1500.0,1500.0,900.0,900.0,1500.0,1500.0,1500.0,1500.0,-0.020987095,0.0321806,-0.01406063,-0.07997135,0.080657884,-8.0548725,0.33649224
3429562397.0,47.397745221601376,8.54559829270479,43.144615,-0.030359188,-0.017398227,0.59723395,0.09463835,0.0013261822,-0.008494525,1620.0,1673.0,1666.0,1621.0,1500.0,1500.0,900.0,900.0,1500.0,1500.0,1500.0,1500.0,-0.1012277,-0.0026544484,0.016488502,-0.38100833,-0.70715934,-9.858902,0.325368
3430170398.0,47.39774585038135,8.5455993726493,44.92081,-0.049543712,0.0014120379,0.597234,-0.07015567,-0.017519116,0.002935742,1700.0,1569.0,1576.0,1684.0,1500.0,1500.0,900.0,900.0,1500.0,1500.0,1500.0,1500.0,0.08014669,0.06158425,0.018430518,-0.70179296,1.6301873,-10.572617,0.33757198
3430570397.0,47.3977458556878,8.545598108493882,46.057693,-0.007954784,-0.020852044,0.59723395,0.0040799556,-0.054234352,0.031966746,1655.0,1627.0,1614.0,1666.0,1500.0,1500.0,900.0,900.0,1500.0,1500.0,1500.0,1500.0,-0.18888256,-0.028731732,0.0473782,0.02122517,-0.8257729,-10.131462,0.33189
3431170398.0,47.39774673413924,8.545596983910992,47.781605,0.007185107,-0.005858784,0.59723395,0.042720567,0.036746513,0.012562065,1619.0,1683.0,1687.0,1592.0,1500.0,1500.0,900.0,900.0,1500.0,1500.0,1500.0,1500.0,0.036413714,-0.055661622,0.016398685,-0.513535,0.46895134,-10.769272,0.33198202
3431562397.0,47.39774710945644,8.54559646400336,48.922596,0.0037269276,-0.01146423,0.5972339,-0.06153158,-0.03393746,-0.00639884,1654.0,1641.0,1622.0,1683.0,1500.0,1500.0,900.0,900.0,1500.0,1500.0,1500.0,1500.0,0.0130584715,0.015695328,-0.026214208,-0.4599082,1.3044958,-9.434608,0.32303798
3432162397.0,47.39774725527119,8.545595362065884,50.708344,-0.0006373796,-0.022603193,0.59723395,0.08069247,-0.06804082,0.01579633,1623.0,1667.0,1639.0,1658.0,1500.0,1500.0,900.0,900.0,1500.0,1500.0,1500.0,1500.0,0.09341219,-0.035298757,-0.0023328692,-0.1935129,0.5014787,-9.114342,0.32604265
3432562397.0,47.39774689728485,8.545595751507271,51.909042,-0.017881189,-0.011699006,0.597234,-0.16026925,0.08881796,0.0032073632,1671.0,1591.0,1601.0,1673.0,1500.0,1500.0,900.0,900.0,1500.0,1500.0,1500.0,1500.0,0.055878345,0.0014774163,0.014474295,0.045474347,-0.8300586,-10.371593,0.32042283
3433170397.0,47.397747765521565,8.545597634689509,53.71508,0.021881001,0.009264839,0.59723395,0.018152336,0.040520012,0.0073699183,1688.0,1660.0,1642.0,1720.0,1500.0,1500.0,900.0,900.0,1500.0,1500.0,1500.0,1500.0,0.14045396,0.016327245,0.032716054,0.4024601,-1.6285844,-11.316128,0.32841802
3433562397.0,47.39774813793825,8.545597075589418,54.942173,0.012636896,0.010337916,0.59723395,0.054888252,-0.006068584,0.003413091,1680.0,1604.0,1630.0,1663.0,1500.0,1500.0,900.0,900.0,1500.0,1500.0,1500.0,1500.0,0.0034656469,-0.09540976,0.047959354,-0.14118579,-1.1683345,-10.002049,0.326976
3434162398.0,47.39774712822338,8.54559749078042,56.824036,-0.0028345457,-0.014988897,0.597234,-0.09318871,-0.102784835,-0.016413404,1682.0,1621.0,1633.0,1671.0,1500.0,1500.0,900.0,900.0,1500.0,1500.0,1500.0,1500.0,-0.114212126,-0.045488358,0.024505317,0.06591098,0.35189384,-9.894357,0.32553
3434570397.0,47.39774688931709,8.545598392571293,58.118755,0.0027882003,0.008657825,0.59723395,0.046157654,0.071402624,-0.026106657,1691.0,1593.0,1672.0,1619.0,1500.0,1500.0,900.0,900.0,1500.0,1500.0,1500.0,1500.0,-0.011454742,0.13558902,0.019971963,0.11764011,0.81934476,-10.906729,0.329098
3435162397.0,47.39774596868212,8.545599334369044,59.95671,-0.017084146,-0.014084028,0.59723395,0.065727845,-0.04603977,-0.019327182,1672.0,1631.0,1648.0,1656.0,1500.0,1500.0,900.0,900.0,1500.0,1500.0,1500.0,1500.0,0.023759224,0.006024741,0.0019861255,-0.2693494,0.6332689,-10.092801,0.32676798
3435570398.0,47.39774537262671,8.545599343694716,61.235565,-0.023589553,-0.013410747,0.59723395,-0.20635928,-0.032926,0.0075899865,1583.0,1679.0,1662.0,1582.0,1500.0,1500.0,900.0,900.0,1500.0,1500.0,1500.0,1500.0,-0.0036396084,0.06992687,-0.03041037,0.14458814,1.2245927,-10.059564,0.32288378
3436170397.0,47.39774583201101,8.545599117567345,63.03966,0.008922653,-0.01061494,0.59723395,0.12008792,0.041362867,-0.021583887,1682.0,1607.0,1578.0,1725.0,1500.0,1500.0,900.0,900.0,1500.0,1500.0,1500.0,1500.0,0.007393445,-0.0028041168,0.030159863,0.03950163,3.71494,-9.573889,0.3356936
3436570397.0,47.39774562733504,8.545600276385027,64.25871,-0.031512745,0.00040245042,0.59723395,-0.035124578,0.021998605,-0.015985958,1631.0,1651.0,1617.0,1656.0,1500.0,1500.0,900.0,900.0,1500.0,1500.0,1500.0,1500.0,-0.05379334,0.018273054,0.014848775,0.09274082,-0.18181737,-10.583963,0.33455002
3437170397.0,47.39774601890914,8.545598403525263,66.07758,0.0067529683,-0.018903537,0.597234,0.0025789556,-0.038145013,-0.017332008,1614.0,1687.0,1674.0,1631.0,1500.0,1500.0,900.0,900.0,1500.0,1500.0,1500.0,1500.0,0.24968398,-0.053777926,0.039480355,-0.022820994,0.17409466,-9.186554,0.32455403
3437562398.0,47.39774589406051,8.545596852631169,67.28494,-0.012511044,-0.022781106,0.597234,-0.08310726,-0.018538205,-0.010975409,1594.0,1688.0,1718.0,1567.0,1500.0,1500.0,900.0,900.0,1500.0,1500.0,1500.0,1500.0,-0.017875308,-0.0043876045,-0.036259882,0.08811423,0.25070179,-8.903624,0.330594
3438170396.0,47.39774658318935,8.545593605035576,69.15268,0.04035846,-0.030741416,0.597234,0.016086744,0.0035228953,0.02348127,1617.0,1665.0,1657.0,1608.0,1500.0,1500.0,900.0,900.0,1500.0,1500.0,1500.0,1500.0,0.034549896,0.061366152,0.029016882,-0.2713248,-1.3799365,-10.708513,0.323704
3438562398.0,47.397746680056215,8.54559386433353,70.35895,0.0069445088,-0.018678293,0.59723395,-0.007385717,-0.0072797267,-0.015264438,1586.0,1679.0,1684.0,1579.0,1500.0,1500.0,900.0,900.0,1500.0,1500.0,1500.0,1500.0,-0.08317971,0.031463094,-0.01017054,0.31066176,-2.5690496,-10.435826,0.34013802
3439162397.0,47.39774786280661,8.545593330719237,72.09321,0.050854813,-0.0059032682,0.59723395,0.004053292,0.047350712,-0.011375236,1667.0,1566.0,1623.0,1628.0,1500.0,1500.0,900.0,900.0,1500.0,1500.0,1500.0,1500.0,-0.16306183,-0.05109574,0.007066616,-0.010860104,1.924552,-8.071284,0.33352667
3439570397.0,47.39774895182666,8.545593871436955,73.20579,0.027798966,0.008229173,0.597234,-0.063103914,-0.010722411,0.009174428,1571.0,1664.0,1637.0,1615.0,1500.0,1500.0,900.0,900.0,1500.0,1500.0,1500.0,1500.0,0.14068422,0.0031440305,-0.009619497,-0.507645,0.5023855,-9.390566,0.31900007
3440170396.0,47.39774958612711,8.545594996408623,74.80023,0.027955139,0.01115183,0.59723395,-0.053001985,0.0647235,-0.0012639512,1527.0,1620.0,1587.0,1577.0,1500.0,1500.0,900.0,900.0,1500.0,1500.0,1500.0,1500.0,0.04882053,0.013572742,0.020564003,-0.2151557,-2.5310385,-10.271599,0.330804
3440562398.0,47.39774863556372,8.545598014763662,75.70622,-0.019338751,0.008555267,0.597234,-0.07899613,-0.058466833,0.007832341,1552.0,1609.0,1591.0,1570.0,1500.0,1500.0,900.0,900.0,1500.0,1500.0,1500.0,1500.0,-0.07719745,-0.08615778,-0.014901984,-0.16125494,-0.6191666,-9.174732,0.33559602
3441170397.0,47.39774634639746,8.545599492611585,76.922745,-0.013799936,-0.005813838,0.59723395,-0.0070079863,0.031455215,0.026412807,1527.0,1543.0,1547.0,1529.0,1500.0,1500.0,900.0,900.0,1500.0,1500.0,1500.0,1500.0,0.2475887,0.024818268,0.009513323,0.42612892,-2.0002198,-10.72818,0.330634
3441570397.0,47.39774515762112,8.54559866097705,77.58061,-0.014940946,-0.031093178,0.59723395,0.20749354,-0.06983286,-0.018845094,1544.0,1551.0,1520.0,1565.0,1500.0,1500.0,900.0,900.0,1500.0,1500.0,1500.0,1500.0,0.28827494,-0.046266522,-0.02410352,-0.043301105,-2.070753,-7.1263676,0.333592
3442170397.0,47.39774491263572,8.545598916024302,78.38812,-0.014507558,-0.014363683,0.59723395,0.005113984,0.00027615455,0.015017574,1554.0,1482.0,1517.0,1516.0,1500.0,1500.0,900.0,900.0,1500.0,1500.0,1500.0,1500.0,-0.22677323,0.04517691,-0.014055663,-0.027621772,-0.12353958,-7.8505244,0.33576798
3442570397.0,47.397744840284346,8.545597971642374,78.7881,-0.02028451,-0.028497377,0.597234,0.06154092,-0.065649234,0.014616878,1515.0,1542.0,1549.0,1510.0,1500.0,1500.0,900.0,900.0,1500.0,1500.0,1500.0,1500.0,0.012434746,0.052446827,0.010709657,0.085606016,-0.2263844,-8.085983,0.3269812
3443170397.0,47.39774542934693,8.545598101610974,79.303215,-0.0019909404,-0.009523091,0.59723395,0.017185358,0.0414683,-0.016108274,1511.0,1499.0,1465.0,1534.0,1500.0,1500.0,900.0,900.0,1500.0,1500.0,1500.0,1500.0,-0.05545304,0.042333897,0.008536484,-0.19361952,1.0671866,-10.114146,0.3351875
3443570397.0,47.39774677034364,8.545598624251253,79.581764,-0.0016962106,0.0015388577,0.59723395,0.08335428,0.0046808897,0.0036867096,1511.0,1511.0,1513.0,1500.0,1500.0,1500.0,900.0,900.0,1500.0,1500.0,1500.0,1500.0,-0.035539474,0.038880453,0.0007856671,0.32499704,1.3023782,-11.086417,0.33244002
3444162398.0,47.3977472708202,8.545598008327907,79.92742,-0.0106531475,-0.16617449,0.6888485,-0.07360804,-0.56711805,0.2173821,1464.0,1515.0,1462.0,1519.0,1500.0,1500.0,900.0,900.0,1500.0,1500.0,1500.0,1500.0,-0.06491097,-0.5928344,0.2273736,-0.01654955,-1.1415354,-10.188654,0.33502197
3444570397.0,47.39774802517395,8.54559868890402,80.08635,0.054071616,-0.3717471,0.6888054,-0.13226941,-0.65061426,0.08203922,1460.0,1520.0,1540.0,1529.0,1500.0,1500.0,900.0,900.0,1500.0,1500.0,1500.0,1500.0,0.0410648,-0.6309112,0.085027106,-0.68443763,0.1766775,-9.825542,0.32513398
3445170397.0,47.39775503535404,8.54560668828324,80.23654,0.010068912,-0.48526677,0.6890264,0.085807316,-0.070024215,-0.03351874,1496.0,1582.0,1595.0,1517.0,1500.0,1500.0,900.0,900.0,1500.0,1500.0,1500.0,1500.0,0.056972448,-0.11836747,-0.043486975,-1.9457352,-1.3171705,-9.087767,0.338732
3445570400.0,47.39776361450425,8.545614103145912,80.29439,0.04741329,-0.55294627,0.6900782,0.119820304,-0.23373424,-0.020460343,1539.0,1587.0,1567.0,1550.0,1500.0,1500.0,900.0,900.0,1500.0,1500.0,1500.0,1500.0,0.06998782,-0.12147446,-0.04194971,-2.860873,2.6791694,-8.700714,0.357974
3446162398.0,47.39778300328287,8.545632179747455,80.3392,0.08106183,-0.57442707,0.691625,-0.023112016,-0.034172527,0.008069285,1583.0,1541.0,1550.0,1561.0,1500.0,1500.0,900.0,900.0,1500.0,1500.0,1500.0,1500.0,-0.12819546,-0.1588169,0.011909008,-3.6545525,1.3352427,-9.829912,0.3687688
3446570397.0,47.39779905871588,8.545645988042356,80.33923,0.12966892,-0.63653433,0.69389874,0.15480068,-0.1509266,0.031790547,1633.0,1559.0,1542.0,1627.0,1500.0,1500.0,900.0,900.0,1500.0,1500.0,1500.0,1500.0,0.27986255,-0.14990002,0.038195573,-4.1094165,0.48235965,-8.560865,0.36456454
3447170397.0,47.39782581513455,8.545670041292068,80.30818,0.16860564,-0.7111348,0.69658446,0.067899734,-0.14849225,0.027807234,1651.0,1604.0,1641.0,1607.0,1500.0,1500.0,900.0,900.0,1500.0,1500.0,1500.0,1500.0,0.23088233,-0.1074409,0.0348207,-4.929609,-0.87771493,-8.725309,0.37373197
3447562397.0,47.39784460674623,8.545689317534082,80.278534,0.16192845,-0.7357812,0.6979751,0.0005500838,-0.049309716,0.030897876,1632.0,1643.0,1648.0,1652.0,1500.0,1500.0,900.0,900.0,1500.0,1500.0,1500.0,1500.0,-0.17572698,0.028790956,0.05657614,-5.2741623,1.2089893,-8.657551,0.37229598
3448170397.0,47.3978771903674,8.545729261070258,80.25941,0.18864264,-0.7509077,0.69856095,0.056312267,0.06481379,0.036919784,1663.0,1697.0,1701.0,1677.0,1500.0,1500.0,900.0,900.0,1500.0,1500.0,1500.0,1500.0,0.1464137,0.03984812,0.022662481,-5.9897475,0.16148499,-8.595468,0.36971003
3448570397.0,47.39789996721228,8.545758485301953,80.23395,0.1921536,-0.7000157,0.69819176,-0.048013244,0.17401929,0.0027359806,1666.0,1648.0,1705.0,1623.0,1500.0,1500.0,900.0,900.0,1500.0,1500.0,1500.0,1500.0,0.08031799,0.030837437,0.0021833598,-5.7465377,-0.5240529,-8.524679,0.360928
3449170397.0,47.3979356532174,8.545801914954799,80.215836,0.19837278,-0.699065,0.6985458,0.010248181,-0.102920964,-0.025285905,1632.0,1668.0,1611.0,1691.0,1500.0,1500.0,900.0,900.0,1500.0,1500.0,1500.0,1500.0,0.12991154,-0.28662217,-0.019632367,-5.5676975,-0.439852,-8.136393,0.36667126
3449570398.0,47.39795862052985,8.545831278682112,80.21529,0.1878058,-0.71031344,0.69836515,-0.072036766,-0.023749936,0.010882162,1608.0,1669.0,1657.0,1610.0,1500.0,1500.0,900.0,900.0,1500.0,1500.0,1500.0,1500.0,-0.126192,0.009197526,-0.029144136,-5.6627417,-1.0209074,-7.509946,0.3693673
3450170397.0,47.39799324425623,8.545877089419195,80.17702,0.20689228,-0.7384571,0.697026,0.02463091,-0.008323709,-0.006975332,1628.0,1694.0,1689.0,1632.0,1500.0,1500.0,900.0,900.0,1500.0,1500.0,1500.0,1500.0,0.20997256,0.020584637,0.017561678,-6.4308558,-2.9535296,-5.6439466,0.37311184
3450570397.0,47.398016469236055,8.545908887344936,80.17112,0.17716117,-0.74129623,0.69576526,0.031321023,0.0078152055,-0.027962536,1694.0,1631.0,1629.0,1702.0,1500.0,1500.0,900.0,900.0,1500.0,1500.0,1500.0,1500.0,0.06687661,-0.0011368786,-0.010363029,-6.6873055,0.85880613,-8.024831,0.365422
3451170398.0,47.39805171307637,8.545958844952173,80.141045,0.157624,-0.7549546,0.69345963,0.059668623,-0.027368128,0.037186045,1697.0,1689.0,1703.0,1658.0,1500.0,1500.0,900.0,900.0,1500.0,1500.0,1500.0,1500.0,-0.093630545,0.016093895,-0.00478297,-5.9528403,-1.5493708,-5.800083,0.369524
3451570397.0,47.39807604142793,8.545991367145943,80.154594,0.1759773,-0.75482494,0.6920333,0.042755138,-0.09026476,-0.005183301,1691.0,1683.0,1687.0,1659.0,1500.0,1500.0,900.0,900.0,1500.0,1500.0,1500.0,1500.0,-0.044565808,-0.06691361,0.02608541,-6.109145,-1.8641891,-7.1338797,0.366978
3452170396.0,47.39811315626126,8.546038699014302,80.17163,0.15851577,-0.77189904,0.6909677,-0.032533735,-0.051506165,-0.01632522,1709.0,1666.0,1661.0,1696.0,1500.0,1500.0,900.0,900.0,1500.0,1500.0,1500.0,1500.0,-0.011223507,0.028984036,0.0060939793,-6.843383,-2.219746,-8.456704,0.36856002
3452562397.0,47.39813863083685,8.54607088621085,80.16701,0.14586988,-0.7746056,0.6903938,-0.07576006,-0.03502906,-0.01653661,1641.0,1719.0,1753.0,1623.0,1500.0,1500.0,900.0,900.0,1500.0,1500.0,1500.0,1500.0,0.038627584,0.01513016,0.029690726,-6.7574735,-1.5607352,-6.9191227,0.339168
3453162397.0,47.39817815159861,8.546121736181224,80.17703,0.13494135,-0.7761814,0.68906975,-0.051570833,-0.020438423,-0.00056786835,1696.0,1688.0,1653.0,1712.0,1500.0,1500.0,900.0,900.0,1500.0,1500.0,1500.0,1500.0,-0.021592459,-0.006462709,0.02622163,-6.5458064,-2.6161978,-7.4537973,0.33543116
3453562397.0,47.39820494968556,8.54615527464509,80.183334,0.13541684,-0.7761156,0.6886001,0.09383083,-0.033297177,-0.007705571,1688.0,1696.0,1672.0,1698.0,1500.0,1500.0,900.0,900.0,1500.0,1500.0,1500.0,1500.0,0.024498025,-0.0020862438,0.021130562,-6.7940035,-2.5497434,-8.142571,0.33408475
3454162398.0,47.39824434365187,8.546205327112109,80.19519,0.12902893,-0.77698034,0.687387,-0.058767688,0.025044907,-0.0033386424,1668.0,1721.0,1736.0,1635.0,1500.0,1500.0,900.0,900.0,1500.0,1500.0,1500.0,1500.0,0.061365265,-0.06231999,0.024126574,-7.0584707,-2.4806814,-7.6335654,0.33494198
3454562397.0,47.39827099756454,8.546237812491807,80.17476,0.12045473,-0.77807254,0.6873314,-0.03587411,0.05024783,0.00435464,1709.0,1688.0,1664.0,1727.0,1500.0,1500.0,900.0,900.0,1500.0,1500.0,1500.0,1500.0,0.013032129,-0.079306856,0.021234043,-6.3610764,0.007269145,-5.9457827,0.32196403
3455170398.0,47.3983117817765,8.546285273587847,80.20116,0.14596166,-0.7745917,0.6884803,-0.07359155,0.0056380476,0.00063448376,1662.0,1706.0,1726.0,1656.0,1500.0,1500.0,900.0,900.0,1500.0,1500.0,1500.0,1500.0,0.08441889,-0.02410034,-0.001220311,-6.804785,-3.0072536,-6.5111084,0.33459002
3455570398.0,47.39833981533405,8.546317525931203,80.20824,0.13642311,-0.7759753,0.68934405,0.14225078,0.037140105,-0.001774394,1706.0,1681.0,1694.0,1680.0,1500.0,1500.0,900.0,900.0,1500.0,1500.0,1500.0,1500.0,0.06801956,0.042590838,-0.0044449363,-6.7303696,-0.8744215,-7.911059,0.33781803
3456162398.0,47.39838043681855,8.546367108387784,80.21888,0.1372021,-0.775866,0.68961465,-0.073323466,-0.019289907,-0.017374469,1705.0,1670.0,1634.0,1734.0,1500.0,1500.0,900.0,900.0,1500.0,1500.0,1500.0,1500.0,-0.09794991,0.08839406,0.029555894,-6.972518,-2.049449,-7.524462,0.3372653
3456562398.0,47.39840690185012,8.546401527901043,80.2284,0.122500375,-0.7778191,0.68833697,0.0070182052,-0.03225036,0.017501762,1674.0,1723.0,1711.0,1689.0,1500.0,1500.0,900.0,900.0,1500.0,1500.0,1500.0,1500.0,0.17718802,-0.023282014,0.031203996,-6.8244653,0.31796816,-8.41683,0.34704393
3457162397.0,47.39844804057163,8.546450918054283,80.23624,0.13399269,-0.77631205,0.6884721,0.07075796,0.007823313,0.006615548,1723.0,1674.0,1668.0,1729.0,1500.0,1500.0,900.0,900.0,1500.0,1500.0,1500.0,1500.0,0.12227428,0.08666877,-0.020322435,-7.091838,-2.0206666,-5.9402637,0.33104432
3457570397.0,47.39847673256132,8.546482951532415,80.25123,0.14046517,-0.775401,0.68998456,0.048906077,0.011156105,0.0314067,1723.0,1679.0,1699.0,1708.0,1500.0,1500.0,900.0,900.0,1500.0,1500.0,1500.0,1500.0,0.107605875,-0.0148439715,-0.0119704595,-6.5203323,-1.1910784,-6.46945,0.34008402
3458170400.0,47.39851817438279,8.546531884262743,80.30545,0.13478836,-0.7762026,0.69205105,-0.06540349,-0.005345888,0.0041361502,1677.0,1683.0,1701.0,1677.0,1500.0,1500.0,900.0,900.0,1500.0,1500.0,1500.0,1500.0,0.01563743,0.07063834,-0.0065017864,-7.0554023,-0.5615333,-6.222428,0.324888
3458570397.0,47.39854490752257,8.546564007398626,80.31264,0.14634489,-0.77453417,0.69269884,0.06744327,-0.013820908,0.0129397595,1684.0,1702.0,1742.0,1636.0,1500.0,1500.0,900.0,900.0,1500.0,1500.0,1500.0,1500.0,-0.082154915,0.022377295,0.039344143,-6.9996643,-1.8128729,-7.5965037,0.32848
3459170398.0,47.398585428541445,8.546611118117005,80.31601,0.1479154,-0.7742963,0.6946514,-0.047823552,-0.006556862,-0.0068414602,1707.0,1666.0,1686.0,1697.0,1500.0,1500.0,900.0,900.0,1500.0,1500.0,1500.0,1500.0,-0.17529549,-0.026263287,-0.00077387225,-6.9550114,0.26667407,-6.4338512,0.32917732
3459570397.0,47.398612845454615,8.54664319248973,80.30096,0.1509028,-0.77383626,0.6967512,-0.06025167,-0.020020423,0.031336114,1673.0,1725.0,1710.0,1700.0,1500.0,1500.0,900.0,900.0,1500.0,1500.0,1500.0,1500.0,-0.07529747,0.07840413,-0.027917149,-6.4163566,-0.6946833,-7.048026,0.33142066
3460162397.0,47.39865359791841,8.546692703032203,80.32606,0.15031198,-0.773928,0.69820297,-0.098412044,0.008543247,0.008174,1677.0,1729.0,1718.0,1674.0,1500.0,1500.0,900.0,900.0,1500.0,1500.0,1500.0,1500.0,0.00071937527,0.016114375,-1.8003824e-05,-6.9525576,1.0996692,-5.745269,0.34571695
3460570397.0,47.39868225492685,8.546723686834543,80.34868,0.16720136,-0.77115333,0.7026313,0.021068333,0.036118157,0.015520499,1684.0,1710.0,1710.0,1682.0,1500.0,1500.0,900.0,900.0,1500.0,1500.0,1500.0,1500.0,0.23711355,-0.008290833,0.0010378297,-6.7540145,-1.2173622,-7.7962484,0.31770867
3461170397.0,47.398723434883344,8.54677309371664,80.38488,0.15765229,-0.77276087,0.70729154,0.056362633,0.04144904,-0.015001734,1685.0,1708.0,1736.0,1651.0,1500.0,1500.0,900.0,900.0,1500.0,1500.0,1500.0,1500.0,0.020020893,-0.033903867,-0.0021221058,-7.548485,-0.7494019,-7.627322,0.34274
3461562397.0,47.39874946075825,8.546805747220354,80.41015,0.17244464,-0.7288194,0.70820373,-0.030304579,0.052339256,0.011726165,1668.0,1696.0,1727.0,1635.0,1500.0,1500.0,900.0,900.0,1500.0,1500.0,1500.0,1500.0,-0.021091968,0.028930211,-0.001967578,-6.704857,-1.578522,-6.397086,0.32054597
3462170397.0,47.39878812636381,8.54685514150046,80.38846,0.18517958,-0.6846454,0.7077377,0.009458147,0.123931654,-0.042457867,1708.0,1606.0,1560.0,1750.0,1500.0,1500.0,900.0,900.0,1500.0,1500.0,1500.0,1500.0,-0.0018085968,0.0912226,-0.0040315753,-6.4242907,0.10841282,-6.442403,0.33055198
3462570397.0,47.3988120341623,8.54688561883803,80.38341,0.18232527,-0.65176255,0.7059808,0.05458839,0.044186383,-0.017184388,1660.0,1622.0,1684.0,1601.0,1500.0,1500.0,900.0,900.0,1500.0,1500.0,1500.0,1500.0,-0.035447754,-0.01149007,-0.043945678,-7.046856,-2.6127696,-8.074228,0.33653402
3463162399.0,47.39884557969612,8.54693016250617,80.39669,0.16729091,-0.5856031,0.7024296,-0.1415162,0.12771921,-0.041226726,1579.0,1656.0,1612.0,1636.0,1500.0,1500.0,900.0,900.0,1500.0,1500.0,1500.0,1500.0,-0.03756928,-0.005711322,-0.010120698,-6.854744,1.3686998,-6.7548747,0.33723402
3463562398.0,47.39886580688904,8.546959744767765,80.423325,0.14968562,-0.5222338,0.68890595,-0.09165457,0.159049,-0.03729708,1604.0,1529.0,1555.0,1618.0,1500.0,1500.0,900.0,900.0,1500.0,1500.0,1500.0,1500.0,-0.11603408,0.17470613,-0.03304387,-6.2031984,-0.7384759,-6.502673,0.34084535
3464162398.0,47.39889422015819,8.546998460429013,80.453186,0.16369401,-0.42733377,0.666041,0.1090762,0.12446581,-0.056900598,1559.0,1551.0,1554.0,1549.0,1500.0,1500.0,900.0,900.0,1500.0,1500.0,1500.0,1500.0,0.11648475,0.17206681,-0.043451957,-6.2660685,-0.75414973,-8.819593,0.3711272
3464570397.0,47.398911640910406,8.547018602872727,80.46456,0.16359155,-0.36433122,0.66482097,-0.109785676,0.12166001,-0.012560433,1514.0,1559.0,1529.0,1540.0,1500.0,1500.0,900.0,900.0,1500.0,1500.0,1500.0,1500.0,0.091752954,0.14586611,-0.0024788834,-4.6129446,-1.6553391,-9.911411,0.351444
3465162398.0,47.39893329039872,8.547044653997816,80.46155,0.14547797,-0.29753146,0.66201043,-0.117733665,0.09059704,-0.029647503,1530.0,1516.0,1500.0,1577.0,1500.0,1500.0,900.0,900.0,1500.0,1500.0,1500.0,1500.0,0.027850587,0.13685435,-0.061094787,-4.24331,-2.4458551,-9.394041,0.36084402
3465570397.0,47.39894389140722,8.547062154616864,80.49884,0.13363756,-0.23360717,0.5969899,-0.16274078,0.099016495,-0.13502519,1514.0,1447.0,1556.0,1538.0,1500.0,1500.0,900.0,900.0,1500.0,1500.0,1500.0,1500.0,-0.04736877,0.087988734,-0.17801626,-4.1137643,-0.94117355,-10.076479,0.35867023
3466170397.0,47.39895718678974,8.547083429941727,80.51688,0.08836878,-0.16141547,0.4434533,0.024158489,0.05998599,-0.32224578,1433.0,1489.0,1584.0,1546.0,1500.0,1500.0,900.0,900.0,1500.0,1500.0,1500.0,1500.0,0.018174205,0.07858103,-0.35430783,-3.3241172,-2.5414515,-9.51627,0.36144376
3466562398.0,47.39896511032096,8.54709512178768,80.553734,0.09566851,-0.1009576,0.29704553,0.018247103,0.18221128,-0.5278223,1398.0,1407.0,1601.0,1534.0,1500.0,1500.0,900.0,900.0,1500.0,1500.0,1500.0,1500.0,-0.20993936,0.09836988,-0.49937645,-2.2618718,-0.31289884,-9.0879345,0.36001402
3467162398.0,47.39897418489776,8.54710692699541,80.57591,0.04732163,-0.082457185,0.22158264,-0.12747402,-0.0326102,-0.088024,1490.0,1597.0,1458.0,1420.0,1500.0,1500.0,900.0,900.0,1500.0,1500.0,1500.0,1500.0,0.062472917,-0.036904998,-0.06823945,-0.6524234,-1.4781419,-11.613211,0.36616653
3467570397.0,47.39897936619735,8.547111903549235,80.57761,0.040407147,-0.049891785,0.22158264,-0.064655274,0.12500328,0.07463506,1525.0,1496.0,1469.0,1450.0,1500.0,1500.0,900.0,900.0,1500.0,1500.0,1500.0,1500.0,-0.10105874,0.14586817,0.084768936,-1.019796,0.5769483,-10.550243,0.36685354
3468170397.0,47.39898501241294,8.547117192625198,80.56325,0.00873322,-0.02463442,0.22158264,0.11256518,-0.016942646,0.043680117,1505.0,1476.0,1525.0,1502.0,1500.0,1500.0,900.0,900.0,1500.0,1500.0,1500.0,1500.0,-0.08586815,-0.025630342,0.0109332,-1.194472,2.3712165,-12.142637,0.36055
3468562397.0,47.39898782798918,8.54711860927949,80.59161,0.02202541,-0.0046800883,0.22158264,-0.045626085,0.02996507,0.02508869,1501.0,1475.0,1502.0,1486.0,1500.0,1500.0,900.0,900.0,1500.0,1500.0,1500.0,1500.0,-0.16816483,-0.007356371,0.014397326,-1.2404255,0.82149273,-10.493116,0.36418402
3469170398.0,47.39898965800593,8.54712043460937,80.62845,0.2451326,0.053681973,0.5357521,0.64625627,0.37289417,0.74170625,1680.0,1593.0,1331.0,1391.0,1500.0,1500.0,900.0,900.0,1500.0,1500.0,1500.0,1500.0,0.4838138,0.34106252,0.80998486,-1.1578248,0.02596024,-9.867693,0.35793602
3469570398.0,47.39898862615151,8.547124683493353,80.64517,0.3856951,0.04922328,0.9223778,0.16775069,0.19377576,0.92117256,1590.0,1582.0,1434.0,1456.0,1500.0,1500.0,900.0,900.0,1500.0,1500.0,1500.0,1500.0,0.2691347,0.16888893,0.9369439,-0.6427326,-2.8324225,-9.384916,0.359702
3470170397.0,47.398981228055966,8.547134401136354,80.62085,0.38640973,-0.15179043,1.3934095,-0.014867189,-0.031564873,0.8880809,1588.0,1588.0,1492.0,1482.0,1500.0,1500.0,900.0,900.0,1500.0,1500.0,1500.0,1500.0,0.04923748,0.062621966,0.90622926,-0.05459451,-5.486512,-10.501995,0.361364
3470562398.0,47.39897302062208,8.54714267856102,80.62546,0.3670456,-0.24435389,1.6290101,0.2148945,-0.06645155,0.8269708,1638.0,1563.0,1459.0,1526.0,1500.0,1500.0,900.0,900.0,1500.0,1500.0,1500.0,1500.0,0.1348295,-0.10832197,0.859863,-0.8626598,-2.986339,-8.230508,0.38190514
3471170397.0,47.398956334049295,8.54715897582662,80.680275,0.2597102,-0.48456818,2.178752,0.12407335,-0.14751497,0.8144456,1602.0,1609.0,1486.0,1550.0,1500.0,1500.0,900.0,900.0,1500.0,1500.0,1500.0,1500.0,0.2152995,-0.07938847,0.8228334,-2.3075686,-0.9078827,-9.787657,0.37005782
3471570397.0,47.39894278613688,8.547172368767662,80.71813,0.15229617,-0.590535,2.4207115,-0.1030305,-0.18657526,0.7622275,1629.0,1584.0,1514.0,1570.0,1500.0,1500.0,900.0,900.0,1500.0,1500.0,1500.0,1500.0,0.121776715,-0.20707329,0.7626633,-3.2266955,-2.8426948,-8.5466585,0.35213602
3472162398.0,47.39891816593357,8.547193538181755,80.744125,0.049184013,-0.6611241,2.6441917,0.13349956,-0.051088233,0.11818021,1421.0,1562.0,1721.0,1640.0,1500.0,1500.0,900.0,900.0,1500.0,1500.0,1500.0,1500.0,-0.021151843,-0.07921574,0.10858387,-4.9319687,0.06923182,-9.774003,0.36685598
3472570397.0,47.39889904858434,8.547211565232017,80.73178,0.11451799,-0.73183036,2.6470175,0.14034867,-0.16081041,-0.15423906,1583.0,1601.0,1652.0,1680.0,1500.0,1500.0,900.0,900.0,1500.0,1500.0,1500.0,1500.0,0.10666285,-0.2275533,-0.16590579,-5.014944,0.3120194,-9.709657,0.35097402
3473170397.0,47.39886640511698,8.54724394661733,80.70891,0.14608218,-0.7745737,2.6532238,-0.0155839585,-0.123443365,-0.10610513,1651.0,1707.0,1707.0,1590.0,1500.0,1500.0,900.0,900.0,1500.0,1500.0,1500.0,1500.0,0.12693274,-0.13446443,-0.06822168,-5.4939356,-0.06941062,-6.2205205,0.35468328
3473570397.0,47.398841642247845,8.547265583659277,80.69045,0.12793282,-0.7771243,2.6552734,-0.016895026,-0.0118491,-0.008576924,1757.0,1641.0,1661.0,1711.0,1500.0,1500.0,900.0,900.0,1500.0,1500.0,1500.0,1500.0,-0.090382196,0.0008889533,0.026798416,-5.911134,-0.42158556,-6.3239717,0.3654487
3474162398.0,47.39880174089669,8.547298468122143,80.68546,0.18200462,-0.7195678,2.6572065,0.22099718,0.20972168,0.028622665,1670.0,1636.0,1676.0,1649.0,1500.0,1500.0,900.0,900.0,1500.0,1500.0,1500.0,1500.0,0.37651694,0.044863086,-0.004866305,-6.49051,0.16669899,-8.273144,0.34969985
3474570397.0,47.39877421705207,8.547319180578942,80.67831,0.15518814,-0.74049354,2.656786,-0.05457172,-0.21513581,-0.01446418,1673.0,1651.0,1676.0,1678.0,1500.0,1500.0,900.0,900.0,1500.0,1500.0,1500.0,1500.0,-0.12608823,-0.16259609,-0.012648333,-6.7605767,0.13156927,-5.5977535,0.35162038
3475170397.0,47.39873234159597,8.547349551056817,80.70914,0.12989986,-0.7601641,2.6543832,0.14640674,-0.072301105,0.031187635,1681.0,1631.0,1658.0,1658.0,1500.0,1500.0,900.0,900.0,1500.0,1500.0,1500.0,1500.0,-0.1597894,-0.11141935,-0.026937604,-5.7200894,-0.114425436,-8.11583,0.342452
3475562396.0,47.39870490158233,8.547370571306017,80.689156,0.15546869,-0.7679225,2.6533399,0.075072385,0.005197968,0.012952847,1667.0,1671.0,1666.0,1683.0,1500.0,1500.0,900.0,900.0,1500.0,1500.0,1500.0,1500.0,-0.15126905,-0.0029904242,0.042671297,-6.292598,-2.5593433,-8.629262,0.34860802
3476162398.0,47.39866231511446,8.547403043163605,80.643906,0.14286292,-0.7750521,2.6520922,-0.02708406,-0.036993816,-0.00810485,1654.0,1729.0,1742.0,1636.0,1500.0,1500.0,900.0,900.0,1500.0,1500.0,1500.0,1500.0,-0.28767917,-0.017546061,0.02465936,-6.421115,-1.6293122,-5.788924,0.37214398
3476562398.0,47.398633623507926,8.547425160075349,80.62644,0.15669145,-0.7540013,2.6507502,-0.040766362,0.10864598,-0.0006608311,1664.0,1684.0,1720.0,1655.0,1500.0,1500.0,900.0,900.0,1500.0,1500.0,1500.0,1500.0,0.005300851,0.0698171,-0.038734306,-7.351944,-1.018052,-4.875395,0.36114198
3477170397.0,47.39858971274291,8.547461074328135,80.60731,0.16465612,-0.6844115,2.653391,0.072754584,0.047149137,-0.0330839,1619.0,1642.0,1639.0,1634.0,1500.0,1500.0,900.0,900.0,1500.0,1500.0,1500.0,1500.0,-0.04338676,0.11240185,0.00023194532,-6.011616,-2.2967296,-8.575267,0.37039602
3477562397.0,47.39856130444219,8.547482276478188,80.603226,0.15248781,-0.6625455,2.6507986,-0.0631053,0.08975101,-0.03134817,1611.0,1618.0,1641.0,1604.0,1500.0,1500.0,900.0,900.0,1500.0,1500.0,1500.0,1500.0,-0.19889246,0.11295614,0.004619289,-6.7578382,-1.0490345,-5.8880877,0.3684101
3478162397.0,47.39852055676173,8.547510802527155,80.58118,0.12651283,-0.60797757,2.6414893,0.014946993,0.032827303,-0.013748949,1529.0,1683.0,1621.0,1590.0,1500.0,1500.0,900.0,900.0,1500.0,1500.0,1500.0,1500.0,-0.047858782,0.08350116,-0.0052549476,-6.9231424,-4.2350683,-6.992034,0.3466059
3478570397.0,47.39849502980736,8.547530200853554,80.56315,0.13754986,-0.5671538,2.6373508,0.07168465,0.07824666,0.007921934,1558.0,1619.0,1616.0,1569.0,1500.0,1500.0,900.0,900.0,1500.0,1500.0,1500.0,1500.0,0.029533641,0.1766096,0.0017370731,-6.7793546,-1.038326,-8.53111,0.32212335
3479162398.0,47.39846062466644,8.547555541802813,80.53079,0.108631745,-0.51851785,2.6271186,-0.15323828,0.13780768,-0.02280242,1589.0,1576.0,1555.0,1610.0,1500.0,1500.0,900.0,900.0,1500.0,1500.0,1500.0,1500.0,-0.027079782,0.15283768,0.0054125455,-5.7154465,-3.219182,-8.448455,0.33334267
3479570398.0,47.398438949001005,8.547571372017236,80.511,0.09688761,-0.4836848,2.6187952,-0.03932109,0.15046525,-0.0019111711,1627.0,1503.0,1525.0,1628.0,1500.0,1500.0,900.0,900.0,1500.0,1500.0,1500.0,1500.0,-0.038261212,0.06680274,-0.0030249953,-4.974701,-2.3488238,-6.8186846,0.33044797
3480170397.0,47.398411482906205,8.54759451844283,80.53788,0.11904448,-0.42984658,2.6146116,0.01846181,-0.0023328173,0.01070431,1494.0,1613.0,1587.0,1504.0,1500.0,1500.0,900.0,900.0,1500.0,1500.0,1500.0,1500.0,-0.026271664,0.06710928,-0.014146843,-5.36857,0.27017826,-10.259008,0.34753603
3480570397.0,47.39839489074433,8.547607116732435,80.5788,0.12134469,-0.36113805,2.6025329,-0.025679417,0.15205118,-0.013931278,1546.0,1484.0,1505.0,1556.0,1500.0,1500.0,900.0,900.0,1500.0,1500.0,1500.0,1500.0,-0.14449705,0.080801114,-0.0024891053,-4.4601083,0.12632099,-8.391483,0.38347203
3481162397.0,47.39837244221004,8.547623363076102,80.60597,0.10192893,-0.28274614,2.5650334,0.163699,0.13948616,-0.051696107,1532.0,1485.0,1530.0,1502.0,1500.0,1500.0,900.0,900.0,1500.0,1500.0,1500.0,1500.0,0.08987805,0.13856693,-0.08721236,-4.693117,-1.1394699,-7.1526203,0.36824727
3481570396.0,47.39835926605147,8.547633099980075,80.60551,0.07959867,-0.22648944,2.5354707,0.03921469,0.20065266,-0.111367,1470.0,1509.0,1534.0,1485.0,1500.0,1500.0,900.0,900.0,1500.0,1500.0,1500.0,1500.0,0.015627831,0.14540851,-0.13857622,-3.7681274,-0.569127,-8.579693,0.3773154
3482170397.0,47.39834247411451,8.547644011343134,80.597755,0.057659622,-0.13414653,2.3599095,-0.09992611,0.09130466,-0.33679643,1434.0,1461.0,1565.0,1563.0,1500.0,1500.0,900.0,900.0,1500.0,1500.0,1500.0,1500.0,-0.03313963,0.071553424,-0.3044187,-2.7781448,-0.96985126,-8.303444,0.361786
3482562397.0,47.398334659952,8.54765117887385,80.61922,0.0699947,-0.09889315,2.3045404,0.22310312,0.1749251,-0.25847995,1530.0,1543.0,1456.0,1443.0,1500.0,1500.0,900.0,900.0,1500.0,1500.0,1500.0,1500.0,0.20829178,-0.014223497,-0.23653372,-2.1742702,-0.13267818,-7.520738,0.36004198
3483162397.0,47.39832651717597,8.547659841908963,80.637535,0.049911626,-0.074912995,2.3045404,-0.15098718,0.026896471,0.05637998,1567.0,1472.0,1402.0,1540.0,1500.0,1500.0,900.0,900.0,1500.0,1500.0,1500.0,1500.0,-0.17921714,-0.10258901,0.0472269,-1.3543339,-1.5780504,-7.29618,0.36143202
3483570398.0,47.39832266088497,8.547662452482026,80.6398,-0.0012751962,-0.07115291,2.3045404,-0.10421289,-0.011802461,0.06603072,1556.0,1415.0,1451.0,1516.0,1500.0,1500.0,900.0,900.0,1500.0,1500.0,1500.0,1500.0,-0.16148087,-0.0039820285,0.019933693,-0.77832204,-0.0792228,-10.513065,0.369022
3484170397.0,47.39831790253055,8.547665682757035,80.61682,-0.026348058,-0.041231256,2.3045404,-0.23816694,0.038511816,0.035134718,1521.0,1481.0,1500.0,1494.0,1500.0,1500.0,900.0,900.0,1500.0,1500.0,1500.0,1500.0,-0.151443,0.025836032,0.0027049088,-1.0545868,0.68670833,-9.844021,0.35967797
3484570397.0,47.39831552923391,8.547668429822115,80.63129,-0.120767474,-0.02911095,2.1788814,-0.36342755,0.08198838,-0.22561222,1266.0,1368.0,1707.0,1622.0,1500.0,1500.0,900.0,900.0,1500.0,1500.0,1500.0,1500.0,-0.19869673,0.06791533,-0.29281735,-0.79231095,-0.41633213,-9.685074,0.36156672
3485170397.0,47.39831476605667,8.54767598685591,80.61725,-0.24191417,-0.07426735,1.7073585,-0.09322157,0.15412673,-0.96817815,1419.0,1439.0,1609.0,1607.0,1500.0,1500.0,900.0,900.0,1500.0,1500.0,1500.0,1500.0,0.07596683,0.22342412,-0.9763054,-0.60497,0.12953442,-11.348759,0.36159164
3485570397.0,47.39831926770305,8.547680098339717,80.64006,-0.16062337,-0.11143686,1.393424,0.10856173,-0.02367637,-0.9595802,1493.0,1410.0,1529.0,1570.0,1500.0,1500.0,900.0,900.0,1500.0,1500.0,1500.0,1500.0,0.14773607,0.036323383,-0.9654022,-1.0363445,1.226038,-7.8509846,0.36509567
3486162397.0,47.398327708417774,8.547683761139755,80.64868,-0.07550458,-0.19134966,1.0007777,-0.057777945,-0.13178016,-0.7996032,1485.0,1449.0,1512.0,1544.0,1500.0,1500.0,900.0,900.0,1500.0,1500.0,1500.0,1500.0,0.03439712,-0.16684586,-0.8067086,-1.8988698,0.5801649,-10.20215,0.36176598
3486562398.0,47.39833427336183,8.547687406230361,80.64769,-0.0583898,-0.28141344,0.68635225,-0.18684529,-0.23140611,-0.7673982,1497.0,1423.0,1483.0,1607.0,1500.0,1500.0,900.0,900.0,1500.0,1500.0,1500.0,1500.0,0.13420975,-0.17983899,-0.77819014,-2.2781765,0.9653328,-8.913799,0.355236
3487170397.0,47.39834648682443,8.54769269931109,80.637146,0.065590866,-0.39097992,0.37835065,0.059888687,-0.07441286,-0.22842187,1632.0,1625.0,1407.0,1401.0,1500.0,1500.0,900.0,900.0,1500.0,1500.0,1500.0,1500.0,-0.106827594,-0.1306527,-0.21648014,-2.242256,-2.1899214,-8.627939,0.35421598
3487562398.0,47.3983564223092,8.547699815026826,80.61963,0.035714563,-0.4440977,0.377347,-0.028115725,-0.15594266,0.17051928,1605.0,1604.0,1519.0,1448.0,1500.0,1500.0,900.0,900.0,1500.0,1500.0,1500.0,1500.0,0.032190155,-0.15108386,0.18413523,-3.075653,-2.1568758,-10.076645,0.360636
3488162397.0,47.39837590107313,8.547711010606863,80.619965,0.04899115,-0.53341734,0.37713778,0.040868193,-0.080628164,0.15077797,1567.0,1542.0,1587.0,1559.0,1500.0,1500.0,900.0,900.0,1500.0,1500.0,1500.0,1500.0,0.16954756,-0.052572016,0.16184509,-3.6370997,1.1199644,-9.257494,0.3602919
3488570397.0,47.39839176819782,8.54771832240017,80.63255,0.05723868,-0.6124046,0.37916064,0.1311925,-0.15532048,0.062425446,1555.0,1592.0,1591.0,1610.0,1500.0,1500.0,900.0,900.0,1500.0,1500.0,1500.0,1500.0,0.070795044,-0.18905371,0.10085439,-4.6541805,-0.8295361,-10.844545,0.35326153
3489170398.0,47.39842064280171,8.547732949332106,80.62161,0.051362474,-0.7011335,0.3814393,0.011794235,-0.20890796,-0.02130446,1613.0,1600.0,1583.0,1646.0,1500.0,1500.0,900.0,900.0,1500.0,1500.0,1500.0,1500.0,-0.07719491,-0.1732168,0.0011047124,-4.634315,-0.36879396,-7.464863,0.353144
3489562397.0,47.39844262789457,8.547745480406293,80.601715,0.079215564,-0.7431035,0.3817918,-0.08480467,-0.112972535,0.0062308316,1673.0,1631.0,1613.0,1697.0,1500.0,1500.0,900.0,900.0,1500.0,1500.0,1500.0,1500.0,0.13697295,-0.18373336,-0.0021067464,-5.315486,-0.36436158,-7.404997,0.35328
3490170397.0,47.39848291580893,8.547768170519992,80.5862,0.062435538,-0.7834439,0.38320795,-0.05790546,-0.03916457,-0.0066371346,1699.0,1660.0,1701.0,1640.0,1500.0,1500.0,900.0,900.0,1500.0,1500.0,1500.0,1500.0,-0.18323044,-0.06050074,0.011744419,-6.116561,-0.31850445,-8.949207,0.351564
3490570397.0,47.3985114141671,8.547784688130465,80.56106,0.11011198,-0.761619,0.3837192,0.12012605,0.029130196,-0.017437866,1732.0,1658.0,1675.0,1717.0,1500.0,1500.0,900.0,900.0,1500.0,1500.0,1500.0,1500.0,0.03992965,0.01061882,0.040511392,-5.824777,-1.9548333,-8.145825,0.357776
3491170398.0,47.39855604939827,8.547810050440889,80.50481,0.08704138,-0.6895081,0.385279,-0.002498749,0.05241643,-0.033569805,1617.0,1694.0,1642.0,1696.0,1500.0,1500.0,900.0,900.0,1500.0,1500.0,1500.0,1500.0,-0.017697938,0.08539927,0.011635829,-7.0339727,-1.4477382,-7.467655,0.36227
3491562398.0,47.398584256362135,8.547826031868484,80.50664,0.09613068,-0.73570436,0.38574484,0.06729579,-0.0653133,-0.019675167,1696.0,1645.0,1662.0,1670.0,1500.0,1500.0,900.0,900.0,1500.0,1500.0,1500.0,1500.0,0.02820057,-0.016548157,0.0062133702,-6.7866917,0.048932664,-7.6062365,0.35701472
3492162398.0,47.39862937633084,8.54785153516573,80.53567,0.09052392,-0.7602016,0.38877833,-0.124832675,-0.017133087,0.024075544,1691.0,1646.0,1693.0,1682.0,1500.0,1500.0,900.0,900.0,1500.0,1500.0,1500.0,1500.0,-0.021861294,-0.030237192,-0.01626079,-6.2312536,-0.6521703,-7.0360003,0.36847717
3492570397.0,47.39866079806536,8.547871416055804,80.5319,0.08572919,-0.7585493,0.38748088,0.07372787,-0.0019595241,-0.020006638,1707.0,1644.0,1616.0,1752.0,1500.0,1500.0,900.0,900.0,1500.0,1500.0,1500.0,1500.0,-0.016602062,-0.042856224,0.03543324,-6.4623375,2.8470619,-7.001453,0.36420798
3493170398.0,47.39870627517943,8.547902557128081,80.525116,0.06300291,-0.7468504,0.38228804,0.0687263,0.065554604,-0.011733086,1726.0,1618.0,1679.0,1683.0,1500.0,1500.0,900.0,900.0,1500.0,1500.0,1500.0,1500.0,0.057044003,0.14051048,-0.014786357,-7.1475763,0.6003865,-7.311597,0.368266
3493570397.0,47.39873704069946,8.547922082868045,80.51306,0.10121844,-0.71717906,0.3789973,0.038399685,0.055530947,-0.03163514,1634.0,1704.0,1676.0,1659.0,1500.0,1500.0,900.0,900.0,1500.0,1500.0,1500.0,1500.0,0.29022932,0.037107322,0.029051954,-6.9034185,-0.74556744,-6.451336,0.35606587
3494170398.0,47.39878255239737,8.54794900037381,80.51027,0.109803654,-0.66332704,0.37779,0.08413499,0.04169271,-0.03752422,1684.0,1622.0,1641.0,1644.0,1500.0,1500.0,900.0,900.0,1500.0,1500.0,1500.0,1500.0,-0.13671218,0.07820106,-0.016136903,-6.6737003,-1.3831738,-8.305259,0.36016613
3494570397.0,47.39881111862933,8.547966840986748,80.53394,0.09915702,-0.6425167,0.37632817,-0.079500504,0.095165715,0.011269848,1613.0,1631.0,1613.0,1616.0,1500.0,1500.0,900.0,900.0,1500.0,1500.0,1500.0,1500.0,-0.039920572,0.15245561,0.020408623,-6.8444777,-2.240461,-8.111608,0.347476
3495162397.0,47.398850221782425,8.547991921756484,80.55364,0.100303985,-0.59572995,0.36788177,0.15087393,0.06910737,-0.030665467,1601.0,1598.0,1652.0,1557.0,1500.0,1500.0,900.0,900.0,1500.0,1500.0,1500.0,1500.0,0.008030827,0.11515937,-0.034178913,-6.2635117,-0.6577647,-7.4054046,0.3219549
3495570399.0,47.39887515794851,8.548007934037782,80.5516,0.077244565,-0.5542388,0.36218873,-0.041329656,0.157352,-0.036349338,1627.0,1534.0,1590.0,1594.0,1500.0,1500.0,900.0,900.0,1500.0,1500.0,1500.0,1500.0,-0.124955654,0.10255797,-0.0018128777,-6.198419,1.6177742,-7.4296737,0.32606745
3496170397.0,47.3989095636778,8.548028638939885,80.51597,0.071034886,-0.50501245,0.35710305,-0.08167804,0.11274163,-0.019425865,1578.0,1577.0,1588.0,1566.0,1500.0,1500.0,900.0,900.0,1500.0,1500.0,1500.0,1500.0,-0.117788434,0.06878069,-0.0051862737,-6.0054436,-1.9513924,-7.411228,0.3329333
3496562396.0,47.39893044869838,8.548043062684258,80.5228,0.06369416,-0.44524306,0.34329945,-0.08835739,0.19425827,-0.042720005,1498.0,1582.0,1577.0,1555.0,1500.0,1500.0,900.0,900.0,1500.0,1500.0,1500.0,1500.0,-0.20665269,0.13888103,-0.052908186,-5.318632,-1.5029106,-7.3829956,0.3354987
3497170397.0,47.39896005465621,8.548058500693607,80.53456,0.08151471,-0.37899116,0.33360383,0.072073296,0.119955756,-0.017222397,1563.0,1532.0,1530.0,1538.0,1500.0,1500.0,900.0,900.0,1500.0,1500.0,1500.0,1500.0,0.26278025,0.11884335,-0.014739647,-4.3847156,-0.64755917,-9.179195,0.36482602
3497570397.0,47.39897724620828,8.548068258668836,80.56976,0.058774486,-0.29448944,0.32846463,-0.12437014,0.15773049,0.00786759,1493.0,1492.0,1512.0,1511.0,1500.0,1500.0,900.0,900.0,1500.0,1500.0,1500.0,1500.0,0.14398554,0.13865915,-0.005624409,-4.228505,-2.6155238,-10.317175,0.35502398
3498162398.0,47.39899770790807,8.54808150598629,80.58227,0.07798138,-0.23657945,0.29181263,0.056331836,0.0597132,-0.101083085,1548.0,1430.0,1496.0,1542.0,1500.0,1500.0,900.0,900.0,1500.0,1500.0,1500.0,1500.0,-0.10427907,0.110273466,-0.101513155,-4.2572727,-0.6741438,-7.4958267,0.36600602
3498570397.0,47.39900923003563,8.548088808854386,80.58612,0.06228531,-0.17023516,0.23207518,0.01809149,0.06026206,-0.12878859,1516.0,1446.0,1511.0,1495.0,1500.0,1500.0,900.0,900.0,1500.0,1500.0,1500.0,1500.0,-0.22136542,0.122034214,-0.15644321,-3.216899,-1.0335208,-7.886992,0.34964526
3499170398.0,47.39902283783645,8.54809694889542,80.540085,0.05850916,-0.13049631,0.1392869,0.10767556,0.09315986,-0.17523228,1699.0,1697.0,1292.0,1346.0,1500.0,1500.0,900.0,900.0,1500.0,1500.0,1500.0,1500.0,0.12529838,0.043022633,-0.16459441,-2.5900707,1.9025459,-10.357777,0.36917847
3499570398.0,47.39903041671631,8.548101104607316,80.5421,0.026473418,-0.07209503,0.13928689,-0.04629184,0.09183507,-0.040041268,1523.0,1508.0,1432.0,1510.0,1500.0,1500.0,900.0,900.0,1500.0,1500.0,1500.0,1500.0,-0.12415129,0.08174891,-0.0062742,-2.0954745,0.16633314,-10.41045,0.350666
3500162397.0,47.39903803298294,8.548108768362498,80.55775,-0.01472669,-0.051450636,0.13928688,-0.07181995,0.038926605,0.054243308,1475.0,1520.0,1486.0,1498.0,1500.0,1500.0,900.0,900.0,1500.0,1500.0,1500.0,1500.0,-0.11818904,-0.000809457,0.0075216955,-1.5790088,0.49389148,-9.256798,0.37068403
3500570397.0,47.399042336148064,8.54811303177516,80.59505,-0.064635925,-0.0141761275,0.13928688,-0.1769132,0.04803459,0.008794202,1463.0,1502.0,1455.0,1506.0,1500.0,1500.0,900.0,900.0,1500.0,1500.0,1500.0,1500.0,0.16341181,0.060906492,0.00789039,-1.2120545,-1.4614947,-10.252797,0.360004
3501162401.0,47.399047336655215,8.548112718995833,80.5668,-0.019941607,0.0051359613,0.13928689,0.028874861,0.10751036,0.0055501065,1461.0,1512.0,1529.0,1467.0,1500.0,1500.0,900.0,900.0,1500.0,1500.0,1500.0,1500.0,0.18641593,0.011719268,0.022443792,-0.9143287,0.092876315,-8.768076,0.360694
3501570398.0,47.39905017986286,8.548111297181224,80.5656,0.26906562,0.127337,0.46284345,0.58438647,0.51447636,0.64497954,1641.0,1654.0,1370.0,1345.0,1500.0,1500.0,900.0,900.0,1500.0,1500.0,1500.0,1500.0,0.5602132,0.45875108,0.6659337,-0.24652939,-1.2508099,-9.458806,0.357638
3502162397.0,47.39904688991923,8.548115803512593,80.583145,0.32866135,-0.08444627,0.85580873,-0.14195925,-0.24076304,1.0159231,1584.0,1626.0,1457.0,1416.0,1500.0,1500.0,900.0,900.0,1500.0,1500.0,1500.0,1500.0,-0.28198245,-0.15107155,1.0032777,0.63380957,-1.5797083,-10.469139,0.36953402
3502570397.0,47.39904104089451,8.548124834251258,80.592926,0.34514725,-0.2590835,1.2482971,0.12188967,-0.030382724,0.97232217,1596.0,1565.0,1480.0,1476.0,1500.0,1500.0,900.0,900.0,1500.0,1500.0,1500.0,1500.0,0.099078,-0.045298625,1.005742,-1.1186204,-1.9512897,-10.787436,0.37449646
3503162397.0,47.39903032505308,8.548145208310507,80.60802,0.26763883,-0.4691095,1.7103271,0.14484796,-0.086800635,0.80952966,1588.0,1538.0,1528.0,1502.0,1500.0,1500.0,900.0,900.0,1500.0,1500.0,1500.0,1500.0,0.17636324,-0.08105034,0.84571767,-2.614666,0.87545073,-7.654673,0.34824997
3503562397.0,47.3990211596474,8.548162650758218,80.63938,0.17471905,-0.5450593,1.9394106,0.10071871,-0.16114126,0.744962,1626.0,1569.0,1557.0,1522.0,1500.0,1500.0,900.0,900.0,1500.0,1500.0,1500.0,1500.0,-0.04139212,-0.23150314,0.80145633,-3.2753994,-1.1327931,-8.52557,0.35579598
3504170397.0,47.39900418758999,8.548193443598809,80.64638,0.009172545,-0.6773887,2.2700639,-0.08198502,-0.10039604,0.2239138,1453.0,1525.0,1703.0,1699.0,1500.0,1500.0,900.0,900.0,1500.0,1500.0,1500.0,1500.0,-0.14588265,-0.17171882,0.19753297,-4.222134,0.6031151,-7.229026,0.33603197
3504570397.0,47.39899128836764,8.54821869053994,80.6299,0.050845034,-0.7269033,2.2713306,0.11934067,-0.119370185,-0.11742987,1576.0,1622.0,1702.0,1701.0,1500.0,1500.0,900.0,900.0,1500.0,1500.0,1500.0,1500.0,0.18295908,-0.1516174,-0.1256634,-4.9266815,1.5958687,-9.585289,0.358064
3505170398.0,47.39896876385186,8.548262439324779,80.65684,0.06567259,-0.78323555,2.2735634,0.046524357,-0.08779849,-0.11471197,1637.0,1734.0,1701.0,1642.0,1500.0,1500.0,900.0,900.0,1500.0,1500.0,1500.0,1500.0,-0.01432467,0.0024559211,-0.08187742,-4.7249146,0.9198159,-8.745649,0.34342998
3505570397.0,47.39895061899895,8.548294910645081,80.66438,0.076280504,-0.7824775,2.2739608,-0.0038895854,0.06439362,-0.036734093,1692.0,1705.0,1639.0,1721.0,1500.0,1500.0,900.0,900.0,1500.0,1500.0,1500.0,1500.0,0.0985971,-0.111598745,-0.025961809,-5.1007767,0.8754409,-8.540439,0.34111804
3506170397.0,47.39892100255407,8.548347933471184,80.643265,0.07918064,-0.7017541,2.274798,-0.059892662,0.17194472,0.0010925765,1624.0,1680.0,1609.0,1678.0,1500.0,1500.0,900.0,900.0,1500.0,1500.0,1500.0,1500.0,0.19432966,0.09541834,0.075027905,-6.337391,-0.2639923,-7.9759274,0.35429108
3506570397.0,47.398901822786506,8.548383425550817,80.60074,0.11456769,-0.7364347,2.276093,0.08536805,-0.11614957,-0.016014202,1617.0,1694.0,1682.0,1633.0,1500.0,1500.0,900.0,900.0,1500.0,1500.0,1500.0,1500.0,0.26273227,-0.08520436,0.011276638,-6.6941953,-1.5630755,-5.76963,0.36528403
3507170397.0,47.39887193711477,8.548434377585775,80.58821,0.09571519,-0.7568639,2.275582,-0.08691106,0.015077571,0.020734739,1654.0,1716.0,1719.0,1623.0,1500.0,1500.0,900.0,900.0,1500.0,1500.0,1500.0,1500.0,-0.030207234,-0.046424754,-0.027614001,-6.4368935,-1.4199345,-7.688572,0.36633998
3507570397.0,47.39885020548245,8.548469508402345,80.59758,0.08340073,-0.7660922,2.274195,0.02380987,-0.03200292,0.022048416,1692.0,1686.0,1737.0,1631.0,1500.0,1500.0,900.0,900.0,1500.0,1500.0,1500.0,1500.0,-0.13017043,0.011416068,-0.01763682,-6.0469656,-0.37176406,-5.7671576,0.36359382
3508170397.0,47.398817721003546,8.548525547279093,80.62825,0.07134216,-0.7828446,2.2734184,-0.07994467,-0.028573427,-0.008418,1674.0,1689.0,1698.0,1647.0,1500.0,1500.0,900.0,900.0,1500.0,1500.0,1500.0,1500.0,0.04143576,-0.06689416,-0.031333767,-6.5302405,-1.210005,-7.2773886,0.36495417
3508570397.0,47.398795197021656,8.548562629650748,80.6226,0.08014885,-0.7821724,2.271746,-0.042329114,-0.053291995,-0.035125263,1681.0,1693.0,1702.0,1665.0,1500.0,1500.0,900.0,900.0,1500.0,1500.0,1500.0,1500.0,-0.02446732,0.026188588,-0.010720529,-6.9913187,-1.3292018,-8.462202,0.37475002
3509162396.0,47.39876146886754,8.54861955082014,80.61211,0.0743917,-0.7826208,2.269919,0.088293135,0.025305294,-0.020467998,1687.0,1685.0,1695.0,1692.0,1500.0,1500.0,900.0,900.0,1500.0,1500.0,1500.0,1500.0,0.091174245,0.0073654316,0.0027818563,-6.993583,-1.8853912,-5.793298,0.36060464
3509570397.0,47.398738924515214,8.548660402448785,80.5865,0.0804383,-0.782149,2.2706928,-0.013445938,-0.014420248,-0.011126178,1703.0,1691.0,1657.0,1718.0,1500.0,1500.0,900.0,900.0,1500.0,1500.0,1500.0,1500.0,0.1281466,-0.05287411,0.02363714,-6.7714643,-0.70368856,-8.126172,0.35936522
3510170397.0,47.39870509612448,8.548720379624722,80.5677,0.073965296,-0.78265274,2.2717526,0.10239536,-0.033369765,0.007927556,1706.0,1695.0,1709.0,1690.0,1500.0,1500.0,900.0,900.0,1500.0,1500.0,1500.0,1500.0,-0.1323314,0.042588755,-0.0011956396,-6.6932893,-0.25975657,-6.9154153,0.371764
3510562397.0,47.39868309819241,8.548757838737652,80.57451,0.06951694,-0.7829741,2.2707045,-0.033344626,0.04423636,-0.016661786,1672.0,1725.0,1742.0,1639.0,1500.0,1500.0,900.0,900.0,1500.0,1500.0,1500.0,1500.0,0.053499024,-0.06068112,0.015895214,-7.163007,-1.7436159,-7.6244507,0.355982
3511162397.0,47.39864955999554,8.548814888202367,80.582886,0.07727964,-0.7824002,2.2683775,0.009272051,-0.017487599,-0.01603564,1692.0,1711.0,1667.0,1714.0,1500.0,1500.0,900.0,900.0,1500.0,1500.0,1500.0,1500.0,0.08365973,-0.01903253,-0.015038623,-7.176317,-2.8507397,-5.3420057,0.33979398
3511570397.0,47.39862693295859,8.54885348774807,80.60213,0.06772411,-0.74089634,2.2667642,-0.057218175,0.16875295,-0.018576367,1641.0,1672.0,1702.0,1636.0,1500.0,1500.0,900.0,900.0,1500.0,1500.0,1500.0,1500.0,0.02247532,0.18034992,-0.016125679,-7.0549994,-2.381054,-6.242386,0.342844
3512170397.0,47.39859502623565,8.548908912730722,80.58124,0.0899627,-0.7002436,2.2647705,0.04697097,0.074006766,0.009683777,1667.0,1623.0,1603.0,1675.0,1500.0,1500.0,900.0,900.0,1500.0,1500.0,1500.0,1500.0,0.30065608,0.031792518,-0.00044249624,-7.071863,-0.64802283,-8.902163,0.33493602
3512570397.0,47.39857551662879,8.548943769826412,80.56836,0.08673747,-0.6537057,2.265274,-0.045872543,0.067567505,-0.026685234,1637.0,1618.0,1581.0,1662.0,1500.0,1500.0,900.0,900.0,1500.0,1500.0,1500.0,1500.0,0.15119521,0.06953997,-0.027402842,-6.6670504,0.91000783,-6.390286,0.32793045
3513170398.0,47.398548063973664,8.548993033671737,80.545135,0.07789994,-0.6279869,2.2659595,-0.056198888,0.10802362,-0.022502905,1608.0,1632.0,1603.0,1644.0,1500.0,1500.0,900.0,900.0,1500.0,1500.0,1500.0,1500.0,0.105474554,0.12866722,-0.039172675,-6.984233,0.068332255,-8.030708,0.33223724
3513570397.0,47.39853081619289,8.549024525767905,80.56184,0.08042479,-0.5769187,2.2679799,0.08335606,0.12007409,0.001522888,1620.0,1574.0,1566.0,1628.0,1500.0,1500.0,900.0,900.0,1500.0,1500.0,1500.0,1500.0,0.1967959,0.19102058,-9.5599695e-05,-6.168174,-0.5970826,-9.161405,0.33234066
3514170397.0,47.398504335547074,8.549068991630064,80.56661,0.0653071,-0.4708822,2.2621095,-0.02184184,0.16759738,-0.034717172,1538.0,1589.0,1594.0,1559.0,1500.0,1500.0,900.0,900.0,1500.0,1500.0,1500.0,1500.0,-0.118112355,0.19376634,-0.03129697,-6.117371,-1.1217828,-10.7044525,0.33968997
3514570397.0,47.39848864631264,8.549095023301703,80.57214,0.029777745,-0.41695306,2.2540708,-0.13308775,0.11614445,-0.028313152,1559.0,1500.0,1522.0,1582.0,1500.0,1500.0,900.0,900.0,1500.0,1500.0,1500.0,1500.0,-0.06436499,0.2001995,-0.039395608,-5.889714,-0.19469044,-7.444747,0.36772823
3515170396.0,47.39846831595047,8.549128325686537,80.55342,0.04129242,-0.35581747,2.2321517,0.011095403,0.15225671,-0.014632301,1534.0,1528.0,1514.0,1546.0,1500.0,1500.0,900.0,900.0,1500.0,1500.0,1500.0,1500.0,-0.16232283,0.1776459,0.006739256,-4.899458,-1.5799891,-8.860071,0.351986
3515570397.0,47.39845730888687,8.549148337431681,80.55022,0.047118507,-0.27994907,2.2309496,-0.11656614,0.12709945,-0.02867817,1532.0,1471.0,1482.0,1547.0,1500.0,1500.0,900.0,900.0,1500.0,1500.0,1500.0,1500.0,-0.2589694,0.101181746,-0.022800889,-4.5154085,0.71137565,-8.356513,0.37269998
3516162398.0,47.39844359830599,8.549171631959755,80.51875,0.034387335,-0.21491556,2.1964147,-0.13698953,0.0859576,-0.07442532,1502.0,1522.0,1538.0,1520.0,1500.0,1500.0,900.0,900.0,1500.0,1500.0,1500.0,1500.0,-0.05568215,0.13291673,-0.09232489,-4.0179043,0.7602011,-8.894405,0.36195105
3516570398.0,47.39843666857119,8.549186531980329,80.548706,0.046997942,-0.14844574,2.1966121,-0.09029585,0.16670726,-0.0014414971,1502.0,1524.0,1507.0,1475.0,1500.0,1500.0,900.0,900.0,1500.0,1500.0,1500.0,1500.0,0.02140778,0.08300912,0.00038149967,-3.0357237,-1.307324,-8.08379,0.37060165
3517170397.0,47.39842920972708,8.549202530745129,80.60379,0.054780312,-0.12373099,2.1863942,-0.13682681,0.12438259,-0.0013178715,1527.0,1440.0,1459.0,1542.0,1500.0,1500.0,900.0,900.0,1500.0,1500.0,1500.0,1500.0,-0.10880601,0.04547378,0.037950214,-2.6151571,-0.02846694,-9.6466875,0.35588998
3517562397.0,47.39842447062595,8.549209642920918,80.641,-0.0045048003,-0.09043305,2.1863942,-0.1340356,0.15342413,-0.02057333,1478.0,1502.0,1528.0,1450.0,1500.0,1500.0,900.0,900.0,1500.0,1500.0,1500.0,1500.0,-0.21543819,0.08664104,0.004291702,-1.8751943,-0.6862544,-9.721394,0.36580855
3518170397.0,47.39841881986737,8.549218914893617,80.65004,0.01206671,-0.027364314,2.1863942,-0.023772813,0.118144326,-0.0044015567,1534.0,1429.0,1461.0,1507.0,1500.0,1500.0,900.0,900.0,1500.0,1500.0,1500.0,1500.0,-0.036366146,0.202609,-0.0121003855,-1.9347069,1.1372201,-10.888069,0.3738675
3518570398.0,47.39841566925144,8.549222828943936,80.643936,-0.010983438,-0.01014934,2.1863942,-0.06752625,0.12774736,-0.017517118,1555.0,1440.0,1397.0,1583.0,1500.0,1500.0,900.0,900.0,1500.0,1500.0,1500.0,1500.0,-0.030559186,0.079909906,0.021018818,-0.4374491,1.2242439,-9.216753,0.364506
3519170397.0,47.398412783615406,8.549226824913845,80.65907,-0.11284477,0.1367342,1.9599247,-0.18031158,0.47240922,-0.65079296,1385.0,1301.0,1662.0,1624.0,1500.0,1500.0,900.0,900.0,1500.0,1500.0,1500.0,1500.0,-0.26421076,0.51790917,-0.6237338,-0.38314867,0.95608294,-11.140532,0.37519526
3519562398.0,47.39841413543418,8.54922871240036,80.68013,-0.18406169,0.08790574,1.6460387,0.15037777,-0.060185302,-0.9568619,1352.0,1471.0,1589.0,1593.0,1500.0,1500.0,900.0,900.0,1500.0,1500.0,1500.0,1500.0,0.27317807,-0.21087413,-0.92761755,-0.23197149,3.4033775,-9.267718,0.3596018
3520170398.0,47.3984199786284,8.549224599455787,80.671234,-0.08157748,-0.027042354,1.1022698,-0.07972179,-0.09901312,-0.9181215,1401.0,1479.0,1549.0,1494.0,1500.0,1500.0,900.0,900.0,1500.0,1500.0,1500.0,1500.0,0.11177904,0.007596346,-0.9479782,-0.03478492,2.0899332,-10.057877,0.372226
3520570398.0,47.39842330884223,8.549221660132085,80.64796,-0.05849352,-0.06480098,0.7883744,0.09020879,-0.0761528,-0.8300823,1459.0,1449.0,1526.0,1540.0,1500.0,1500.0,900.0,900.0,1500.0,1500.0,1500.0,1500.0,-0.13554569,-0.042967543,-0.8113232,-0.4743572,-0.1296128,-10.798949,0.36171
3521170397.0,47.39842751052678,8.549218089978881,80.64691,-0.054099776,-0.13451272,0.41112557,-0.05713211,-0.03660267,-0.78948313,1437.0,1453.0,1517.0,1541.0,1500.0,1500.0,900.0,900.0,1500.0,1500.0,1500.0,1500.0,-0.098767005,-0.03371344,-0.7545831,-0.8062874,0.17527862,-10.462702,0.36251926
3521570397.0,47.398430956574565,8.549219043033846,80.61931,-0.084419034,-0.18175866,0.09718302,-0.20112294,-0.10781077,-0.78446484,1432.0,1473.0,1562.0,1542.0,1500.0,1500.0,900.0,900.0,1500.0,1500.0,1500.0,1500.0,-0.26176926,-0.1688793,-0.7711364,-1.7902541,-1.3423291,-10.033173,0.35697472
3522170397.0,47.398438379361984,8.549215256586056,80.63757,0.002954017,-0.23511335,-0.31215334,0.08524285,-0.029892555,-0.46797612,1565.0,1668.0,1465.0,1309.0,1500.0,1500.0,900.0,900.0,1500.0,1500.0,1500.0,1500.0,0.025927639,-0.069663174,-0.4319002,-1.902323,1.0540708,-10.008094,0.3622238
3522570397.0,47.39844516377344,8.549211547130321,80.64182,0.015644856,-0.30502996,-0.31165147,0.13560762,-0.23238039,0.06412351,1528.0,1655.0,1443.0,1449.0,1500.0,1500.0,900.0,900.0,1500.0,1500.0,1500.0,1500.0,0.13443907,-0.2160146,0.055393547,-2.2318077,-1.3466871,-9.796448,0.35993415
3523162397.0,47.39845803839598,8.549205555372518,80.64447,-0.0026289725,-0.40303364,-0.31157073,-0.022920854,-0.18888764,0.14673111,1498.0,1539.0,1540.0,1506.0,1500.0,1500.0,900.0,900.0,1500.0,1500.0,1500.0,1500.0,-0.1060108,-0.14236416,0.15155175,-2.0179706,-2.7185555,-10.342551,0.3574354
3523570397.0,47.39846884724928,8.549198757020422,80.62324,0.046065707,-0.4724682,-0.31018808,0.000786019,-0.20466825,0.029008457,1478.0,1584.0,1568.0,1528.0,1500.0,1500.0,900.0,900.0,1500.0,1500.0,1500.0,1500.0,0.17637827,-0.13172989,0.031884216,-3.1276152,-0.3764453,-10.186143,0.35498434
3524170397.0,47.398488912105535,8.549189734555597,80.61034,0.037293658,-0.584459,-0.31041324,-0.12264628,-0.2456784,-0.003920899,1522.0,1609.0,1596.0,1574.0,1500.0,1500.0,900.0,900.0,1500.0,1500.0,1500.0,1500.0,0.07314849,-0.21031654,-0.020095162,-4.007507,0.47022265,-9.18441,0.3692
3524562398.0,47.39850496671473,8.54918182560095,80.60176,0.049742293,-0.62576574,-0.30987746,0.15873152,-0.15468979,-0.012498141,1615.0,1581.0,1611.0,1604.0,1500.0,1500.0,900.0,900.0,1500.0,1500.0,1500.0,1500.0,0.12179122,-0.10233458,-0.011725099,-4.1271024,-0.13083234,-7.6660004,0.356548
3525170397.0,47.39853484857538,8.549165325144873,80.62809,0.05758346,-0.7098724,-0.3072329,0.1360152,-0.19946256,0.020239502,1605.0,1667.0,1641.0,1617.0,1500.0,1500.0,900.0,900.0,1500.0,1500.0,1500.0,1500.0,0.10453919,-0.10468161,-0.022423806,-4.8050838,-2.6479728,-9.203974,0.524108
