timestamp,lat,lon,alt,roll_body,pitch_body,yaw_body,roll_speed,pitch_speed,yaw_speed,actuators_output_0,actuators_output_1,actuators_output_2,actuators_output_3,actuators_output_4,actuators_output_5,actuators_output_6,actuators_output_7,actuators_output_8,actuators_output_9,actuators_output_10,actuators_output_11,sensor_gyro_rad_0,sensor_gyro_rad_1,sensor_gyro_rad_2,sensor_acc_0,sensor_acc_1,sensor_acc_2,cpuload
3166562398.0,47.39774530606744,8.54559517794205,31.06908,0.030680168,-0.04786572,0.51071274,-0.114365354,0.048612308,0.010729355,1562.0,1554.0,1590.0,1531.0,1500.0,1500.0,900.0,900.0,1500.0,1500.0,1500.0,1500.0,-0.098480456,0.08540158,-0.0040931785,0.31473014,0.43663418,-10.008837,0.32366186
3167162397.0,47.39774562228822,8.545593189788773,31.634117,0.05749049,-0.052500423,0.51071274,0.10658495,0.007074835,0.0028809211,1572.0,1528.0,1559.0,1551.0,1500.0,1500.0,900.0,900.0,1500.0,1500.0,1500.0,1500.0,0.23064855,-0.12318671,-0.0030643824,0.022513067,-0.32907784,-10.43825,0.33041263
3167562397.0,47.39774641192594,8.545592770457818,32.07478,0.04991242,-0.017412758,0.51071274,-0.096173465,0.10518386,0.005215143,1522.0,1555.0,1543.0,1534.0,1500.0,1500.0,900.0,900.0,1500.0,1500.0,1500.0,1500.0,0.056394864,-0.0001308632,-0.01827641,-0.4697152,1.2377818,-8.656969,0.34129202
3168162397.0,47.39774662311368,8.545594516924524,32.75026,0.023161521,-0.019849334,0.51071274,0.06997591,-0.025619198,-0.008107883,1523.0,1590.0,1585.0,1529.0,1500.0,1500.0,900.0,900.0,1500.0,1500.0,1500.0,1500.0,-0.09941852,-0.055836555,0.056913093,0.18291725,-1.5126867,-10.067165,0.340038
3168562397.0,47.3977464539493,8.545595202680135,33.229958,0.011731227,-0.008900988,0.51071274,0.08641648,0.035046607,-0.04374317,1581.0,1518.0,1538.0,1575.0,1500.0,1500.0,900.0,900.0,1500.0,1500.0,1500.0,1500.0,-0.007124364,0.020777093,-0.010336838,-0.23884904,-0.6801147,-10.310461,0.34599602
3169162397.0,47.39774636160416,8.545595807513559,33.930347,0.0030106683,-0.01154443,0.51071274,0.037569847,-0.015600998,0.008134474,1585.0,1572.0,1587.0,1545.0,1500.0,1500.0,900.0,900.0,1500.0,1500.0,1500.0,1500.0,-0.12023343,-0.0065142466,0.0010005586,0.16829836,-0.78453267,-9.810924,0.33192998
3169562396.0,47.3977466568889,8.545595621114026,34.440872,0.018760543,0.00027817063,0.51071274,0.09612326,-0.03493316,-0.015749115,1560.0,1576.0,1598.0,1519.0,1500.0,1500.0,900.0,900.0,1500.0,1500.0,1500.0,1500.0,0.30518785,0.104849316,-0.02085972,-0.37359118,1.6396854,-10.050056,0.33200145
3170162397.0,47.39774606626973,8.545598750815426,35.243702,-0.01862863,-0.0010930423,0.51071274,-0.17781565,-0.028219635,-0.015290184,1569.0,1568.0,1583.0,1542.0,1500.0,1500.0,900.0,900.0,1500.0,1500.0,1500.0,1500.0,-0.08892977,-0.023988385,-0.025656324,-0.13345861,0.6961404,-10.435602,0.3241458
3170562397.0,47.397745949964886,8.545600926856697,35.829865,-0.055927783,0.011094826,0.51071274,-0.12936454,0.031213662,-0.004910893,1515.0,1591.0,1630.0,1493.0,1500.0,1500.0,900.0,900.0,1500.0,1500.0,1500.0,1500.0,-0.0007509709,0.07323851,0.02207232,-0.21327356,-0.056629956,-9.847691,0.33693802
3171162396.0,47.39774662738128,8.545599277203394,36.907475,0.00073710625,0.0024277521,0.51071274,0.051878247,-0.044626065,0.0029587897,1749.0,1704.0,1676.0,1750.0,1500.0,1500.0,900.0,900.0,1500.0,1500.0,1500.0,1500.0,0.05303014,-0.016870415,0.0183483,0.19789855,-0.99318486,-12.0835705,0.33569402
3171562397.0,47.39774737097044,8.545597278695027,37.997036,0.017919837,0.0086,0.51071274,0.08715922,-0.008745512,-0.004148329,1656.0,1660.0,1662.0,1647.0,1500.0,1500.0,900.0,900.0,1500.0,1500.0,1500.0,1500.0,0.062386878,0.024389895,0.010281285,-0.024198059,-1.0433474,-10.914618,0.325226
3172162396.0,47.397746472801884,8.545596735984738,39.61888,-0.009535227,-0.017302962,0.51071274,-0.19082884,-0.018224603,-0.009835776,1630.0,1644.0,1643.0,1619.0,1500.0,1500.0,900.0,900.0,1500.0,1500.0,1500.0,1500.0,-0.08022477,-0.10762526,0.015732279,-0.22161639,-1.2183301,-10.561354,0.32122803
3172562397.0,47.39774542485533,8.545597583879704,40.718014,-0.034317125,-0.017782517,0.51071274,-0.112611,0.07390445,0.0037330263,1616.0,1652.0,1645.0,1616.0,1500.0,1500.0,900.0,900.0,1500.0,1500.0,1500.0,1500.0,-0.021081997,-0.07819834,0.014542577,0.44517052,1.125931,-8.812065,0.320966
3173162397.0,47.39774502816252,8.545598997979006,42.37326,-0.038367882,-0.0023090667,0.51071274,-0.11455064,0.052880585,-0.0069457507,1599.0,1668.0,1702.0,1574.0,1500.0,1500.0,900.0,900.0,1500.0,1500.0,1500.0,1500.0,0.026270324,0.038291942,0.014853729,-0.019954938,-2.5297852,-7.57442,0.3341992
3173562396.0,47.39774546698276,8.545599562511017,43.536713,-0.01685509,-0.0023393938,0.51071274,0.17119852,0.034601785,-0.003344706,1676.0,1598.0,1613.0,1638.0,1500.0,1500.0,900.0,900.0,1500.0,1500.0,1500.0,1500.0,0.13469626,-0.017782768,-0.017206835,0.21708012,-1.1762841,-8.555197,0.32349312
3174162398.0,47.39774561451779,8.545597882240191,45.239136,0.004254491,-0.0015502779,0.51071274,0.032338835,0.05172003,-0.009813913,1661.0,1619.0,1597.0,1665.0,1500.0,1500.0,900.0,900.0,1500.0,1500.0,1500.0,1500.0,-0.0550701,0.14093304,0.026617317,-0.16827834,-0.8130152,-10.381056,0.3355217
3174562397.0,47.39774612878769,8.545597322094743,46.377285,0.015736613,0.004417541,0.51071274,0.058662124,0.008509896,0.020427357,1641.0,1650.0,1657.0,1639.0,1500.0,1500.0,900.0,900.0,1500.0,1500.0,1500.0,1500.0,0.20920347,-0.010457714,0.027554337,-0.03665802,1.6063377,-11.290501,0.32130802
3175162397.0,47.3977466518619,8.545596444836608,48.136765,0.021433381,0.0018436089,0.51071274,0.11157151,0.057418544,0.014262462,1639.0,1641.0,1621.0,1659.0,1500.0,1500.0,900.0,900.0,1500.0,1500.0,1500.0,1500.0,0.16165523,0.11190017,-0.023427391,-0.28850406,-0.9583685,-8.691017,0.33002
3175562397.0,47.39774642586512,8.545595800373796,49.319313,0.0072568506,-0.019717839,0.51071274,0.023580728,-0.022283161,0.013729664,1674.0,1616.0,1636.0,1657.0,1500.0,1500.0,900.0,900.0,1500.0,1500.0,1500.0,1500.0,-0.015798453,-0.05978267,-0.0037426243,-0.8218685,-1.4937389,-9.138529,0.33423
3176162397.0,47.39774606427172,8.545596948801936,51.114407,-0.025900995,0.0015718718,0.51071274,-0.11659856,0.04977679,0.0032241216,1634.0,1622.0,1646.0,1629.0,1500.0,1500.0,900.0,900.0,1500.0,1500.0,1500.0,1500.0,-0.09617929,-0.020129625,0.0021936388,-0.49219823,-0.5721115,-10.817081,0.328398
3176562397.0,47.39774682262568,8.545598201544143,52.284576,0.008318677,0.012092064,0.51071274,0.1549898,-0.007972766,0.0062590563,1666.0,1676.0,1712.0,1616.0,1500.0,1500.0,900.0,900.0,1500.0,1500.0,1500.0,1500.0,0.20277746,0.025677344,-0.01067433,-0.39512494,-2.218655,-10.144731,0.32938367
3177162397.0,47.39774716835789,8.545597660258546,54.11123,0.010562216,0.00853592,0.51071274,0.014611998,0.0075913966,-0.009618805,1637.0,1585.0,1588.0,1645.0,1500.0,1500.0,900.0,900.0,1500.0,1500.0,1500.0,1500.0,-0.023657426,-0.03078452,0.024898991,-0.058315575,-0.025097564,-9.270702,0.3224398
3177562398.0,47.39774605167111,8.545598060029816,55.235466,0.0020776582,-0.01056201,0.51071274,-0.09959762,-0.07282921,0.030108726,1558.0,1611.0,1593.0,1587.0,1500.0,1500.0,900.0,900.0,1500.0,1500.0,1500.0,1500.0,0.04573882,-0.10421571,0.00011244688,-0.29879898,-0.33533454,-9.07456,0.33543402
3178162396.0,47.397745649425865,8.545599906741224,56.663635,-0.024748895,0.0046480484,0.51071274,-0.18977687,0.04962324,0.0021641115,1587.0,1529.0,1543.0,1562.0,1500.0,1500.0,900.0,900.0,1500.0,1500.0,1500.0,1500.0,-0.10648477,0.055214416,1.8873776e-05,-0.09063214,2.0989192,-7.5569835,0.333494
3178562398.0,47.397744889059446,8.545600028363982,57.400776,-0.020021958,-0.012067344,0.51071274,-0.00026013824,-0.019746047,0.0036358335,1566.0,1538.0,1558.0,1548.0,1500.0,1500.0,900.0,900.0,1500.0,1500.0,1500.0,1500.0,-0.0042322106,-0.08973972,-0.010323495,-0.2791267,1.4555649,-9.551469,0.348072
3179162396.0,47.397744259090565,8.545600104740974,58.31721,-0.0068498524,-0.007360076,0.51071274,0.0076805796,0.04478821,-0.01478188,1494.0,1556.0,1556.0,1492.0,1500.0,1500.0,900.0,900.0,1500.0,1500.0,1500.0,1500.0,-0.12802604,0.017803619,0.015412312,0.038613386,-0.21396226,-9.294897,0.324844
3179562396.0,47.39774463949812,8.545600091446445,58.75825,0.004366016,-0.0069749174,0.51071274,0.066083215,-0.022179373,0.017895149,1504.0,1563.0,1598.0,1474.0,1500.0,1500.0,900.0,900.0,1500.0,1500.0,1500.0,1500.0,0.016023772,-0.031206634,0.0054136333,0.19714162,-0.47286028,-9.09107,0.329538
3180162396.0,47.397744595855805,8.545601190550403,59.309273,-0.023202863,2.3096687e-05,0.51071274,-0.01577338,0.07407838,-0.016436579,1509.0,1516.0,1499.0,1525.0,1500.0,1500.0,900.0,900.0,1500.0,1500.0,1500.0,1500.0,0.18103829,0.037084304,0.025004333,-0.109300226,1.6699518,-9.099834,0.32628667
3180562396.0,47.39774482326069,8.545599409488792,59.590557,-0.015759993,-0.008786257,0.51071274,0.110435024,-0.05700709,0.0066872085,1551.0,1489.0,1539.0,1487.0,1500.0,1500.0,900.0,900.0,1500.0,1500.0,1500.0,1500.0,-0.06309894,0.08845231,0.022125894,-0.6314022,1.1464057,-10.2978115,0.33282596
3181162397.0,47.39774502806433,8.54559654094508,59.92548,0.025786243,-0.10865589,0.38505685,0.09525148,-0.41207126,-0.45821825,1297.0,1393.0,1659.0,1698.0,1500.0,1500.0,900.0,900.0,1500.0,1500.0,1500.0,1500.0,0.12048472,-0.5443842,-0.45489138,-0.39657074,2.973268,-9.048872,0.33499402
3181562397.0,47.39774623214499,8.545595013360414,60.108112,0.034622833,-0.28030208,0.19117527,-0.022395493,-0.35002717,-0.4604476,1587.0,1525.0,1430.0,1452.0,1500.0,1500.0,900.0,900.0,1500.0,1500.0,1500.0,1500.0,-0.064051606,-0.2899868,-0.43334284,-0.43837923,0.78001964,-8.516247,0.35553998
3182162397.0,47.39775314537293,8.545596475634312,60.26177,0.06315454,-0.3602236,0.19121633,0.15652965,-0.02440619,0.05994384,1531.0,1592.0,1525.0,1435.0,1500.0,1500.0,900.0,900.0,1500.0,1500.0,1500.0,1500.0,0.16906178,-0.0015021329,0.080372356,-2.1441424,0.48833716,-10.444914,0.35149997
3182562397.0,47.39776183215486,8.545596428793344,60.310905,0.08733181,-0.38037553,0.19211091,-0.027251445,-0.07372539,0.12259598,1502.0,1551.0,1492.0,1538.0,1500.0,1500.0,900.0,900.0,1500.0,1500.0,1500.0,1500.0,0.0818162,-0.069143586,0.098964795,-2.0564463,-0.4753979,-9.931788,0.36018002
3183162397.0,47.39777935067922,8.545597975892868,60.328495,0.10683625,-0.4935975,0.19362563,0.052556004,-0.20078313,0.03269213,1541.0,1528.0,1515.0,1589.0,1500.0,1500.0,900.0,900.0,1500.0,1500.0,1500.0,1500.0,0.17565605,-0.123475544,0.002837521,-2.7155926,-1.4599302,-9.882515,0.35959202
3183562396.0,47.39779385267555,8.545600360376959,60.342133,0.12194956,-0.513842,0.19418797,0.018335631,-0.10580478,0.0017381421,1547.0,1543.0,1584.0,1531.0,1500.0,1500.0,900.0,900.0,1500.0,1500.0,1500.0,1500.0,0.10699056,-0.06516475,-0.003957648,-3.3243675,-2.4427495,-8.137445,0.36848325
3184162396.0,47.39781745799086,8.545607301984052,60.343422,0.11366693,-0.60304445,0.19417194,0.05956401,-0.12703402,-0.00923829,1536.0,1652.0,1596.0,1587.0,1500.0,1500.0,900.0,900.0,1500.0,1500.0,1500.0,1500.0,-0.014690829,-0.026437163,0.013185435,-3.8611648,0.21574834,-8.740447,0.3554896
3184562396.0,47.39783627577063,8.545612027669003,60.33326,0.13816905,-0.6188432,0.19443123,0.1232234,-0.04352306,0.014247987,1577.0,1595.0,1616.0,1553.0,1500.0,1500.0,900.0,900.0,1500.0,1500.0,1500.0,1500.0,-0.055989742,-0.17951785,0.051655922,-4.371028,0.39319593,-8.574681,0.3615082
3185162396.0,47.397867891071314,8.545617901962656,60.294968,0.14847669,-0.7163925,0.1959319,-0.036774658,-0.10463485,-0.004930167,1605.0,1643.0,1592.0,1638.0,1500.0,1500.0,900.0,900.0,1500.0,1500.0,1500.0,1500.0,0.15994708,-0.1355132,-0.0072938255,-4.087144,-1.0655391,-10.54909,0.37473202
3185562399.0,47.3978924488855,8.545624576209253,60.27101,0.14695893,-0.74186957,0.19612592,0.058258787,-0.06863785,0.008395388,1645.0,1664.0,1619.0,1653.0,1500.0,1500.0,900.0,900.0,1500.0,1500.0,1500.0,1500.0,0.09916367,-0.10252348,0.0071335277,-5.033964,-0.049892545,-8.627288,0.347912
3186162396.0,47.397933361836415,8.545633968318556,60.218727,0.17565018,-0.7533437,0.19704263,0.19501281,-0.037124168,0.0070471745,1703.0,1671.0,1708.0,1678.0,1500.0,1500.0,900.0,900.0,1500.0,1500.0,1500.0,1500.0,0.16165988,0.032497805,0.009170711,-5.714091,-0.9557393,-6.4905787,0.36595833
3186562396.0,47.39796384545333,8.545642992208732,60.214928,0.18728064,-0.7230497,0.19727966,-0.030362455,0.120402336,0.023828885,1694.0,1672.0,1736.0,1634.0,1500.0,1500.0,900.0,900.0,1500.0,1500.0,1500.0,1500.0,-0.1060868,0.06435891,0.002213567,-6.6801844,0.057270475,-8.481873,0.37277973
3187162398.0,47.39801148921365,8.54565754681601,60.250637,0.17510435,-0.6914335,0.19702621,-0.019522712,-0.042369165,-0.032807548,1645.0,1650.0,1645.0,1640.0,1500.0,1500.0,900.0,900.0,1500.0,1500.0,1500.0,1500.0,0.10212931,0.002762137,-0.009149294,-6.047456,-0.074316815,-8.924702,0.36800635
3187562396.0,47.39804200123413,8.54566739129956,60.289635,0.17031474,-0.7160797,0.19669035,0.007979735,-0.13528575,-0.015087713,1648.0,1658.0,1676.0,1609.0,1500.0,1500.0,900.0,900.0,1500.0,1500.0,1500.0,1500.0,-0.032308776,-0.10434991,-0.033608776,-5.6569195,-0.328753,-5.923563,0.3545745
3188162396.0,47.39808750382586,8.545682661285683,60.299633,0.17908688,-0.73661333,0.19603902,0.053807277,-0.08192919,0.0115770325,1667.0,1666.0,1677.0,1655.0,1500.0,1500.0,900.0,900.0,1500.0,1500.0,1500.0,1500.0,-0.15633602,-0.033116486,-0.030150224,-5.865924,-3.2793589,-7.3942537,0.35191798
3188562397.0,47.39811824410128,8.545693442280589,60.287624,0.17113435,-0.74322516,0.19520436,0.11504331,-0.032397833,-0.016025746,1742.0,1627.0,1643.0,1720.0,1500.0,1500.0,900.0,900.0,1500.0,1500.0,1500.0,1500.0,-0.04415072,-0.09357718,0.0178958,-5.7410536,-2.4836547,-6.0892496,0.364586
3189162396.0,47.398164875883786,8.545709859150453,60.29883,0.15642065,-0.75583905,0.19394444,-0.08916741,-0.017186267,0.008050373,1681.0,1681.0,1639.0,1714.0,1500.0,1500.0,900.0,900.0,1500.0,1500.0,1500.0,1500.0,-0.17434967,0.0025979532,-0.0073920023,-5.9170723,-2.0663977,-8.84601,0.37510198
3189562397.0,47.398197884082414,8.545722484164948,60.31273,0.1400108,-0.7649317,0.19204222,-0.2350889,-0.08301618,0.0104757715,1683.0,1674.0,1647.0,1710.0,1500.0,1500.0,900.0,900.0,1500.0,1500.0,1500.0,1500.0,0.048721462,-0.10612756,0.026456276,-6.84933,-2.593988,-8.131797,0.36636603
3190162397.0,47.39824853355241,8.545737957006914,60.312847,0.14808656,-0.77385855,0.1915062,0.07732214,0.00757693,0.027998868,1607.0,1732.0,1694.0,1639.0,1500.0,1500.0,900.0,900.0,1500.0,1500.0,1500.0,1500.0,-0.05172874,0.0012425793,0.028221147,-7.0884714,-1.355844,-8.0634,0.34284598
3190562397.0,47.39828250805948,8.545747513925773,60.29618,0.17335396,-0.7700638,0.19161642,-0.0038763294,-0.026004452,0.03594902,1700.0,1687.0,1651.0,1730.0,1500.0,1500.0,900.0,900.0,1500.0,1500.0,1500.0,1500.0,0.21925373,0.093827315,-0.012733032,-6.758192,-0.87450033,-9.023147,0.32207686
3191162397.0,47.39833278067214,8.54576145467236,60.293,0.15855625,-0.7726131,0.1918957,-0.057224505,-0.005321256,-0.018154461,1695.0,1677.0,1707.0,1659.0,1500.0,1500.0,900.0,900.0,1500.0,1500.0,1500.0,1500.0,-0.00108185,-0.016897852,0.019885223,-6.390938,-2.3368726,-7.459477,0.33325398
3191562397.0,47.39836628380303,8.545774438613693,60.28081,0.12759161,-0.77716887,0.1899836,-0.12013802,-0.0050874106,0.003762976,1759.0,1644.0,1684.0,1733.0,1500.0,1500.0,900.0,900.0,1500.0,1500.0,1500.0,1500.0,0.01480773,-0.06886867,-0.0026011423,-6.9514894,-1.5584066,-6.494923,0.32903802
3192162397.0,47.39841732181969,8.545790342130744,60.293415,0.13537024,-0.7761221,0.18906485,0.10612135,-0.0054830387,0.02906752,1720.0,1656.0,1677.0,1711.0,1500.0,1500.0,900.0,900.0,1500.0,1500.0,1500.0,1500.0,0.24650665,-0.11943525,-0.0028575733,-6.880191,-0.39337093,-7.8189373,0.333726
3192562396.0,47.3984524069576,8.545799952549068,60.30625,0.13126658,-0.77668226,0.18916726,0.055873256,-0.08285806,0.0045611165,1672.0,1719.0,1740.0,1662.0,1500.0,1500.0,900.0,900.0,1500.0,1500.0,1500.0,1500.0,0.09012251,0.029170733,0.0048791105,-6.8946257,-2.009089,-6.707192,0.32257402
3193162396.0,47.39850510807883,8.545814261249136,60.31082,0.1284061,-0.77706224,0.18967627,0.13124396,-0.029510345,0.03964863,1698.0,1686.0,1710.0,1676.0,1500.0,1500.0,900.0,900.0,1500.0,1500.0,1500.0,1500.0,-0.11597907,0.02858254,0.010369936,-6.8440514,0.9971406,-9.070231,0.33960402
3193562396.0,47.39854002319437,8.545822628215236,60.307007,0.16186568,-0.77206403,0.19069563,0.023838777,0.008878686,0.022536695,1712.0,1673.0,1678.0,1709.0,1500.0,1500.0,900.0,900.0,1500.0,1500.0,1500.0,1500.0,-0.11243966,0.026658433,0.04717782,-6.774255,-2.4151516,-8.264774,0.33268
3194162397.0,47.39859192030685,8.545837597827525,60.311905,0.1392171,-0.77558017,0.19062613,-0.07995548,-0.04411806,0.010658098,1697.0,1712.0,1717.0,1684.0,1500.0,1500.0,900.0,900.0,1500.0,1500.0,1500.0,1500.0,-0.34609467,-0.023416596,0.026595777,-6.746669,-1.5080012,-5.494837,0.3346792
3194562397.0,47.39862631910715,8.545847147728509,60.31409,0.14690247,-0.77445,0.19078366,-0.03666505,0.017969912,0.0058654905,1686.0,1712.0,1724.0,1697.0,1500.0,1500.0,900.0,900.0,1500.0,1500.0,1500.0,1500.0,0.001892185,-0.0208582,-0.032143414,-7.542467,-0.9052636,-4.7891846,0.3438717
3195162397.0,47.39867830912251,8.545859978919497,60.355663,0.14463514,-0.7747902,0.19235454,0.027944615,0.020949237,-0.01002368,1681.0,1704.0,1695.0,1691.0,1500.0,1500.0,900.0,900.0,1500.0,1500.0,1500.0,1500.0,0.07154606,-0.011339361,0.0064478405,-7.5616236,-2.1307049,-5.647581,0.319322
3195562397.0,47.3987128835038,8.545868241865957,60.365044,0.16396317,-0.77170986,0.19375136,0.03954779,0.00080236647,-0.030867623,1656.0,1729.0,1744.0,1645.0,1500.0,1500.0,900.0,900.0,1500.0,1500.0,1500.0,1500.0,-0.13949895,0.026976565,0.018036658,-6.9504213,-0.7226927,-5.6562634,0.32608598
3196162398.0,47.398765678821576,8.54588269272984,60.366318,0.16114567,-0.7721846,0.19454102,0.11691452,0.010733287,0.008502694,1685.0,1719.0,1677.0,1716.0,1500.0,1500.0,900.0,900.0,1500.0,1500.0,1500.0,1500.0,0.001398739,0.016065823,0.009748388,-7.413768,-3.8743258,-6.460857,0.328816
3196562396.0,47.39880097939408,8.545893112138097,60.38479,0.15170208,-0.7737115,0.19440562,0.010899892,-0.0019411083,0.0058694123,1701.0,1675.0,1709.0,1681.0,1500.0,1500.0,900.0,900.0,1500.0,1500.0,1500.0,1500.0,-0.026393196,-0.041296594,-0.0036761821,-6.815257,-3.1714888,-7.4257965,0.32271802
3197162397.0,47.398853382036215,8.545908178433809,60.395584,0.14393936,-0.7748934,0.19460295,-0.08411634,0.09096999,-0.013031921,1712.0,1703.0,1672.0,1727.0,1500.0,1500.0,900.0,900.0,1500.0,1500.0,1500.0,1500.0,0.027631182,0.07899423,0.017535254,-6.7648973,-3.0099533,-7.4287252,0.329544
3197562396.0,47.39888811250479,8.545917770737194,60.41253,0.15541208,-0.7731233,0.19508295,0.04700728,-0.010107688,0.011469737,1759.0,1634.0,1635.0,1762.0,1500.0,1500.0,900.0,900.0,1500.0,1500.0,1500.0,1500.0,0.004621644,0.06992932,0.002256815,-6.74479,-0.9143276,-7.2069774,0.33652765
3198162397.0,47.3989398695016,8.545931218941254,60.400272,0.16270465,-0.77192295,0.19706547,0.036826078,-0.017853145,0.0033464518,1668.0,1747.0,1724.0,1682.0,1500.0,1500.0,900.0,900.0,1500.0,1500.0,1500.0,1500.0,-0.05507923,0.055815365,0.007380016,-7.0067883,-0.74175704,-7.852897,0.33842862
3198562397.0,47.39897492801177,8.545938697414096,60.427383,0.17498584,-0.7697675,0.200509,0.10251452,-0.03625478,0.009755487,1717.0,1656.0,1658.0,1723.0,1500.0,1500.0,900.0,900.0,1500.0,1500.0,1500.0,1500.0,0.09803025,0.10314901,-0.0008433772,-6.8560467,-2.5537033,-7.481436,0.333224
3199162396.0,47.399028526227184,8.545953297482635,60.442207,0.17530347,-0.7697097,0.20278743,0.05991147,0.0040403954,0.030325249,1713.0,1678.0,1697.0,1693.0,1500.0,1500.0,900.0,900.0,1500.0,1500.0,1500.0,1500.0,0.043443445,-0.03215812,-0.020329913,-7.4420824,-1.1323642,-5.0909085,0.334426
3199562396.0,47.39906344297217,8.545964108434251,60.447144,0.15851216,-0.7726203,0.20250784,0.030252773,0.052773513,0.00033270457,1681.0,1691.0,1723.0,1656.0,1500.0,1500.0,900.0,900.0,1500.0,1500.0,1500.0,1500.0,0.16217366,0.03642264,-0.042747945,-6.5932198,-1.8360232,-6.2034445,0.326966
3200162396.0,47.39911497209129,8.545980560759604,60.459652,0.15414421,-0.7733259,0.20105562,0.048960607,0.012517813,-0.021239977,1683.0,1732.0,1718.0,1686.0,1500.0,1500.0,900.0,900.0,1500.0,1500.0,1500.0,1500.0,0.04018636,0.021109413,0.020638196,-7.0122595,-2.89689,-6.779339,0.34021997
3200562398.0,47.39914996033159,8.545990311695315,60.46119,0.1734648,-0.77004373,0.20251289,0.17516816,0.07754461,-0.018265562,1687.0,1715.0,1721.0,1671.0,1500.0,1500.0,900.0,900.0,1500.0,1500.0,1500.0,1500.0,0.18136187,-0.095237926,-0.0061103464,-6.8591633,-0.14528829,-4.923743,0.31938797
3201162397.0,47.39920264421069,8.546003593678241,60.481583,0.20944692,-0.7134445,0.20856868,-0.019240635,0.18041873,-0.005270539,1728.0,1628.0,1653.0,1706.0,1500.0,1500.0,900.0,900.0,1500.0,1500.0,1500.0,1500.0,-0.05075646,0.069475956,-0.021106184,-6.8352823,-1.6401981,-4.276063,0.32725513
3201562396.0,47.39923672017027,8.546014260779225,60.50654,0.18554609,-0.68887836,0.20849553,-0.046749227,0.040236693,-0.030705968,1693.0,1609.0,1601.0,1715.0,1500.0,1500.0,900.0,900.0,1500.0,1500.0,1500.0,1500.0,-0.08480243,0.012766033,0.0033652217,-7.1867995,-2.4802582,-6.500887,0.33473945
3202162397.0,47.39928383652236,8.546029757094722,60.51571,0.19043204,-0.6308663,0.20625135,-0.15539175,0.069262326,-0.011581805,1613.0,1650.0,1665.0,1590.0,1500.0,1500.0,900.0,900.0,1500.0,1500.0,1500.0,1500.0,0.07769491,0.08993498,-0.010351446,-6.5735216,-0.59338313,-5.7749724,0.332564
3202562397.0,47.3993133656535,8.546038589375772,60.50918,0.2027399,-0.5907871,0.20716643,-0.008583955,0.036801472,-0.011749687,1578.0,1665.0,1616.0,1619.0,1500.0,1500.0,900.0,900.0,1500.0,1500.0,1500.0,1500.0,0.08313436,0.048944853,-0.013290174,-6.3354626,-1.4311979,-8.942558,0.32644802
3203162397.0,47.39935503949803,8.54605415864942,60.491016,0.1811035,-0.53028554,0.20032486,-0.20057821,0.1673453,-0.059617534,1638.0,1549.0,1582.0,1620.0,1500.0,1500.0,900.0,900.0,1500.0,1500.0,1500.0,1500.0,-0.13714114,0.14940573,-0.03919796,-6.236123,-2.1632612,-7.369338,0.33444
3203562397.0,47.399380377204565,8.546064150519376,60.50238,0.17554523,-0.44955865,0.18035728,-0.08085184,0.15066794,-0.06491975,1566.0,1543.0,1567.0,1582.0,1500.0,1500.0,900.0,900.0,1500.0,1500.0,1500.0,1500.0,-0.12101788,0.24008831,-0.065718055,-6.1484594,0.100596964,-6.2200727,0.36268997
3204162397.0,47.39941456842893,8.546074584175173,60.54004,0.18209487,-0.35582125,0.1756417,-0.11065134,0.16995327,-0.029199474,1553.0,1506.0,1521.0,1552.0,1500.0,1500.0,900.0,900.0,1500.0,1500.0,1500.0,1500.0,-0.0356268,0.11792647,-0.042036563,-5.6286955,-1.8789136,-8.7466755,0.35795403
3204562398.0,47.39943355218424,8.546082839108612,60.552338,0.12943831,-0.29332882,0.14293493,-0.25527966,0.141047,-0.102458365,1579.0,1443.0,1479.0,1588.0,1500.0,1500.0,900.0,900.0,1500.0,1500.0,1500.0,1500.0,0.11163729,0.16472305,-0.120253764,-5.052012,-1.1493425,-7.9170284,0.34963804
3205162397.0,47.39945652892154,8.546092959467575,60.576866,0.13519815,-0.2023548,0.03953677,-0.052711733,0.12497127,-0.17131187,1483.0,1467.0,1537.0,1508.0,1500.0,1500.0,900.0,900.0,1500.0,1500.0,1500.0,1500.0,0.10966991,0.12565388,-0.20758824,-3.6248038,-1.2316575,-9.685014,0.35669655
3205562397.0,47.39946929197687,8.546098376925658,60.55361,0.11425002,-0.15231887,-0.08151435,-0.029644761,0.11797825,-0.30239797,1476.0,1480.0,1576.0,1503.0,1500.0,1500.0,900.0,900.0,1500.0,1500.0,1500.0,1500.0,-0.014486834,0.11828454,-0.29852328,-3.2109756,-3.2729557,-9.933491,0.35603
3206162396.0,47.39948452687609,8.546103877883498,60.539337,0.16845606,-0.073120534,-0.1191221,0.34501743,0.32519522,0.12235871,1737.0,1719.0,1300.0,1260.0,1500.0,1500.0,900.0,900.0,1500.0,1500.0,1500.0,1500.0,0.43211848,0.3673035,0.18601182,-2.0541427,-0.24157089,-9.65152,0.37076598
3206562397.0,47.399492167985,8.546109505735853,60.551056,0.25775325,-0.119844615,0.19497277,0.34846684,0.012490689,0.92889524,1661.0,1700.0,1392.0,1331.0,1500.0,1500.0,900.0,900.0,1500.0,1500.0,1500.0,1500.0,0.39427558,0.08468497,0.9326773,-2.0641093,-0.84946775,-9.083169,0.37113202
3207162396.0,47.39949979244168,8.546126246890841,60.606525,0.27849612,-0.28559098,0.73854214,0.11293217,0.009835813,1.0279574,1571.0,1534.0,1440.0,1513.0,1500.0,1500.0,900.0,900.0,1500.0,1500.0,1500.0,1500.0,0.08917335,0.018984083,1.0381292,-1.567744,0.68752503,-10.2271385,0.365304
3207562397.0,47.39950412884181,8.54614116175962,60.61422,0.32022315,-0.37134552,0.96468097,0.25038013,-0.096762076,0.89012975,1552.0,1578.0,1536.0,1516.0,1500.0,1500.0,900.0,900.0,1500.0,1500.0,1500.0,1500.0,0.42819473,-0.17940105,0.8732308,-2.8686457,-0.5720655,-8.505946,0.35435802
3208162397.0,47.39950854875453,8.546168094422766,60.6513,0.1982511,-0.62621903,1.4516357,0.09030225,-0.26242837,0.70057553,1617.0,1634.0,1583.0,1516.0,1500.0,1500.0,900.0,900.0,1500.0,1500.0,1500.0,1500.0,0.24352211,-0.23816873,0.7209715,-3.0509052,0.81932133,-10.08729,0.36848044
3208562397.0,47.3995092295492,8.546192783315561,60.65519,0.08645133,-0.67098355,1.7129911,-0.22069004,-0.009786783,0.44071993,1563.0,1465.0,1691.0,1758.0,1500.0,1500.0,900.0,900.0,1500.0,1500.0,1500.0,1500.0,-0.28204826,0.015015499,0.46203646,-4.0285535,0.7680492,-9.327875,0.36567932
3209162397.0,47.39950636443835,8.546241972158388,60.698807,0.16441901,-0.71740687,1.7140756,0.13932206,-0.05097834,-0.18253332,1609.0,1561.0,1624.0,1725.0,1500.0,1500.0,900.0,900.0,1500.0,1500.0,1500.0,1500.0,0.055672385,-0.13405827,-0.16152325,-5.0546784,-0.18409127,-8.565718,0.36492997
3209562397.0,47.39950356483425,8.546278708752466,60.713192,0.15512234,-0.7498882,1.7144495,-0.055313542,-0.03727549,-0.14681844,1705.0,1615.0,1654.0,1651.0,1500.0,1500.0,900.0,900.0,1500.0,1500.0,1500.0,1500.0,-0.079847835,0.0067490092,-0.12895264,-5.5349693,0.31970567,-8.612127,0.36980802
3210162397.0,47.39949855820101,8.546340970057834,60.75453,0.14904988,-0.7741228,1.714922,-0.034361705,-0.0041952445,-0.001103575,1712.0,1620.0,1647.0,1670.0,1500.0,1500.0,900.0,900.0,1500.0,1500.0,1500.0,1500.0,0.08339411,-0.010792873,-0.028940406,-5.416811,-0.8905027,-7.5479,0.35720003
3210562397.0,47.39949475087162,8.546384753076742,60.752174,0.17889692,-0.76904553,1.7151698,0.15881538,0.018210601,-0.012540099,1679.0,1644.0,1632.0,1696.0,1500.0,1500.0,900.0,900.0,1500.0,1500.0,1500.0,1500.0,0.19214445,-0.04861495,0.016402464,-5.4223723,-0.6275627,-9.500744,0.36195397
3211162397.0,47.3994884549071,8.546452536754622,60.71939,0.23806225,-0.7313955,1.7154028,0.21625036,0.05279092,-0.000113118906,1721.0,1612.0,1671.0,1683.0,1500.0,1500.0,900.0,900.0,1500.0,1500.0,1500.0,1500.0,-0.07777578,0.14279778,-0.028220652,-6.3483467,-1.8330377,-7.201045,0.36415398
3211562396.0,47.39948271373908,8.546498061748302,60.69936,0.19901666,-0.7499391,1.7148019,-0.0049905614,-0.032394744,-0.026791608,1624.0,1702.0,1683.0,1657.0,1500.0,1500.0,900.0,900.0,1500.0,1500.0,1500.0,1500.0,-0.010894429,-0.108474895,-0.015300931,-5.7502484,-1.4778404,-8.922834,0.35955364
3212166397.0,47.399472335658686,8.546565790384173,60.70687,0.17829077,-0.76915854,1.7133001,-0.01269177,-0.043336008,-0.023395834,1713.0,1659.0,1654.0,1702.0,1500.0,1500.0,900.0,900.0,1500.0,1500.0,1500.0,1500.0,0.0071226084,0.011265408,-0.006303545,-6.288598,-2.3344088,-6.9136286,0.37022507
3212562397.0,47.39946479925413,8.546612084634058,60.707726,0.17939104,-0.76895297,1.7116628,0.011833782,0.0073828707,0.019247184,1663.0,1688.0,1662.0,1661.0,1500.0,1500.0,900.0,900.0,1500.0,1500.0,1500.0,1500.0,-0.078981236,-0.10201319,0.014702771,-6.11362,-2.6694515,-8.8706875,0.36521816
3213162396.0,47.39945473476126,8.54668450383236,60.65586,0.1801952,-0.76880205,1.7096155,0.14417209,0.018850517,-0.006654741,1693.0,1666.0,1706.0,1663.0,1500.0,1500.0,900.0,900.0,1500.0,1500.0,1500.0,1500.0,0.03700738,0.07474676,-0.01612349,-6.380032,-1.3781693,-7.252432,0.37159598
3213562397.0,47.39944858619116,8.54673260472154,60.626583,0.1753659,-0.7696982,1.7087405,-0.073555894,-0.011924824,-0.027341485,1718.0,1645.0,1669.0,1702.0,1500.0,1500.0,900.0,900.0,1500.0,1500.0,1500.0,1500.0,-0.18470284,-0.081796125,0.008832737,-6.4032383,0.5347569,-5.836151,0.359168
3214162396.0,47.399438390567646,8.546805444945067,60.61263,0.13848267,-0.77568495,1.7072376,-0.10111819,0.0018761647,0.003945637,1662.0,1718.0,1659.0,1706.0,1500.0,1500.0,900.0,900.0,1500.0,1500.0,1500.0,1500.0,-0.054316115,-0.07243653,-0.025227489,-6.3353605,-0.78240675,-8.600597,0.37039602
3214562397.0,47.39943215205157,8.54685472874166,60.63047,0.14055274,-0.7753885,1.7060361,-0.034810707,0.024391403,0.0047134985,1657.0,1689.0,1668.0,1687.0,1500.0,1500.0,900.0,900.0,1500.0,1500.0,1500.0,1500.0,-0.08835957,-0.03137303,-0.0037146045,-6.3592935,-2.0301542,-6.332845,0.360718
3215162397.0,47.39942293117541,8.546929854233772,60.63571,0.121266276,-0.77797246,1.7045383,-0.05213136,0.0070594093,-0.0007670332,1693.0,1667.0,1668.0,1694.0,1500.0,1500.0,900.0,900.0,1500.0,1500.0,1500.0,1500.0,-0.0820338,-0.00028052978,-0.0029148266,-6.704397,-2.6545005,-8.082855,0.37020797
3215562396.0,47.39941693452752,8.546979750864647,60.64332,0.10522513,-0.77982086,1.7036645,-0.06329261,-0.013184426,0.02956747,1709.0,1611.0,1647.0,1679.0,1500.0,1500.0,900.0,900.0,1500.0,1500.0,1500.0,1500.0,0.0019617702,0.114273526,0.0051173,-6.7595305,0.14732856,-6.637957,0.35632277
3216162396.0,47.39940964172826,8.5470547267496,60.608753,0.12248686,-0.7778207,1.7033263,0.11142783,-0.026688242,-0.0048432625,1697.0,1646.0,1670.0,1700.0,1500.0,1500.0,900.0,900.0,1500.0,1500.0,1500.0,1500.0,-0.03390157,0.03362256,6.909145e-05,-7.220152,-0.880279,-5.5739727,0.352418
3216562397.0,47.3994045332621,8.54710659382675,60.593674,0.11840483,-0.77832216,1.7030554,0.02558966,-0.045360744,0.014369334,1719.0,1632.0,1620.0,1739.0,1500.0,1500.0,900.0,900.0,1500.0,1500.0,1500.0,1500.0,0.23964942,0.04162667,0.009389506,-6.416539,-2.6267152,-6.9297924,0.32379597
3217162396.0,47.399397755803854,8.547181243800964,60.58124,0.10944167,-0.7793612,1.7030122,0.08213758,0.018082524,0.016386798,1736.0,1651.0,1621.0,1750.0,1500.0,1500.0,900.0,900.0,1500.0,1500.0,1500.0,1500.0,0.17375645,-0.03065727,0.018606888,-6.917603,-3.255571,-8.459151,0.32458198
3217562398.0,47.39939302948823,8.547230648388966,60.59203,0.10739076,-0.77958703,1.702834,0.08961393,-0.04641447,-0.011210346,1706.0,1663.0,1620.0,1735.0,1500.0,1500.0,900.0,900.0,1500.0,1500.0,1500.0,1500.0,-0.06851055,0.04670334,0.05152357,-6.700733,-1.9615759,-7.2857122,0.33829403
3218162397.0,47.39938694690096,8.547302476737897,60.60829,0.11550892,-0.77866703,1.7031035,-0.045089602,-0.021236831,0.022890408,1654.0,1710.0,1678.0,1684.0,1500.0,1500.0,900.0,900.0,1500.0,1500.0,1500.0,1500.0,-0.014365224,-0.059654336,-0.02517918,-6.887125,0.18197927,-6.5082836,0.337368
3218562396.0,47.39938228709017,8.54735171374961,60.621834,0.09464003,-0.7808929,1.702932,-0.13349852,-0.0050694016,-0.0018309196,1673.0,1683.0,1663.0,1689.0,1500.0,1500.0,900.0,900.0,1500.0,1500.0,1500.0,1500.0,-0.1538644,-0.024792366,0.00722839,-6.8211455,-2.0262089,-7.6360035,0.32928807
3219162397.0,47.39937667317104,8.547424748134558,60.597343,0.11293583,-0.7789661,1.7036211,-0.05504396,0.059718788,0.016866133,1668.0,1689.0,1731.0,1641.0,1500.0,1500.0,900.0,900.0,1500.0,1500.0,1500.0,1500.0,0.15425247,-0.061834693,0.02356592,-7.011082,-0.6939423,-5.959469,0.33215243
3219562397.0,47.3993733227146,8.547473975440639,60.57266,0.12916683,-0.7769622,1.70445,-0.13118786,0.019134805,0.00024095818,1684.0,1700.0,1698.0,1693.0,1500.0,1500.0,900.0,900.0,1500.0,1500.0,1500.0,1500.0,0.23169124,-0.0013302295,-0.018740935,-6.674739,0.4714646,-7.189773,0.334746
3220162397.0,47.399367845383296,8.54754768185935,60.57689,0.13515891,-0.77615124,1.7054346,0.031759426,0.013794291,0.0034390304,1656.0,1718.0,1691.0,1669.0,1500.0,1500.0,900.0,900.0,1500.0,1500.0,1500.0,1500.0,-0.09363722,0.04260728,-0.008037853,-6.1538067,-0.9968206,-7.538867,0.33221
3220562396.0,47.39936301745882,8.547599521286612,60.582874,0.12378762,-0.7776573,1.7054125,-0.09102242,-0.0007328759,0.0008398163,1694.0,1667.0,1693.0,1672.0,1500.0,1500.0,900.0,900.0,1500.0,1500.0,1500.0,1500.0,-0.22481783,-0.08738286,0.006283706,-6.6877837,0.81645983,-7.77931,0.33518797
3221162397.0,47.39935453600204,8.547675456996684,60.587173,0.10947846,-0.779357,1.7041223,0.027556498,-0.026728071,-0.018203558,1698.0,1640.0,1681.0,1670.0,1500.0,1500.0,900.0,900.0,1500.0,1500.0,1500.0,1500.0,0.04552586,-0.014625136,0.022236776,-6.9591055,1.5675529,-5.1278205,0.32466602
3221562397.0,47.3993489785718,8.547724936781401,60.576035,0.11001192,-0.7792976,1.703182,-0.043638386,-0.015112765,-0.003687519,1697.0,1674.0,1719.0,1654.0,1500.0,1500.0,900.0,900.0,1500.0,1500.0,1500.0,1500.0,-0.15108806,-0.08196123,0.053263634,-6.7704926,-1.0847045,-6.2396145,0.32698798
3222162397.0,47.399342537843125,8.547801295432505,60.565224,0.10281504,-0.78007525,1.7035718,0.041392602,0.007861162,-0.007936112,1645.0,1706.0,1696.0,1678.0,1500.0,1500.0,900.0,900.0,1500.0,1500.0,1500.0,1500.0,-0.018911812,-0.022748252,-0.03705755,-7.0019455,-0.9665468,-7.6421404,0.33813226
3222562396.0,47.399338260120864,8.54785096621945,60.541855,0.103043936,-0.78005123,1.7037383,0.028852664,0.0498453,0.012786822,1692.0,1699.0,1689.0,1705.0,1500.0,1500.0,900.0,900.0,1500.0,1500.0,1500.0,1500.0,-0.020708192,0.033983756,-0.024067946,-6.8991036,-0.22544888,-7.1626387,0.32546866
3223162398.0,47.39933242173197,8.547927168357456,60.53457,0.11486799,-0.77874213,1.7048031,0.17916961,0.018869756,-0.005588322,1650.0,1729.0,1708.0,1675.0,1500.0,1500.0,900.0,900.0,1500.0,1500.0,1500.0,1500.0,0.29079205,-0.016991092,0.013232055,-6.3152924,-1.0273232,-7.5368795,0.33529198
3223562397.0,47.39932945949886,8.547978708161729,60.558037,0.13289824,-0.77646166,1.7065775,0.031538926,0.07259525,0.0035205134,1713.0,1662.0,1693.0,1693.0,1500.0,1500.0,900.0,900.0,1500.0,1500.0,1500.0,1500.0,0.14905427,-0.051101025,0.00032499898,-6.7557654,-1.0542321,-7.3039455,0.33939803
3224162396.0,47.39932352511959,8.548054201317697,60.607693,0.1183352,-0.77833056,1.7077622,-0.07575318,0.008307208,-0.0053402674,1699.0,1658.0,1654.0,1692.0,1500.0,1500.0,900.0,900.0,1500.0,1500.0,1500.0,1500.0,0.19031705,-0.016858377,0.041433383,-7.1185102,-0.1624543,-4.4321604,0.32055402
3224562397.0,47.39931895458251,8.54810402997996,60.62023,0.1314791,-0.77665377,1.707849,0.06876365,-0.008821873,-0.020405546,1633.0,1719.0,1710.0,1646.0,1500.0,1500.0,900.0,900.0,1500.0,1500.0,1500.0,1500.0,-0.09710721,-0.03370403,0.04732773,-6.518708,-2.1698072,-7.038186,0.33797002
3225162397.0,47.39931159862591,8.548178406192411,60.61066,0.11196203,-0.7790774,1.707386,-0.050931696,0.035824955,0.004936731,1666.0,1720.0,1724.0,1632.0,1500.0,1500.0,900.0,900.0,1500.0,1500.0,1500.0,1500.0,-0.088916354,-0.055293355,0.029533233,-7.151186,-2.8526073,-6.6239195,0.33380598
3225562397.0,47.399306041268815,8.548227218087673,60.610146,0.107787885,-0.7795437,1.7061265,0.012396663,0.012261212,0.010029311,1700.0,1688.0,1705.0,1662.0,1500.0,1500.0,900.0,900.0,1500.0,1500.0,1500.0,1500.0,-0.14696807,0.022320002,0.0051534716,-6.5593348,-1.529894,-6.8442707,0.32174826
3226162397.0,47.39929963560286,8.548303919029655,60.629234,0.107543,-0.7795705,1.7069509,0.006902709,-0.017625762,0.0067262477,1685.0,1678.0,1677.0,1661.0,1500.0,1500.0,900.0,900.0,1500.0,1500.0,1500.0,1500.0,-0.013809922,0.038968086,0.013267968,-7.413411,0.93670934,-7.6066856,0.337627
3226562397.0,47.39929585139059,8.548354035971856,60.63326,0.12516072,-0.7774827,1.7081649,-0.09294903,-0.049392816,-0.017801892,1671.0,1683.0,1690.0,1657.0,1500.0,1500.0,900.0,900.0,1500.0,1500.0,1500.0,1500.0,-0.0006307989,-0.04382411,-0.025851326,-6.893547,0.10221185,-7.4867973,0.326904
3227162396.0,47.39928992217235,8.548427245475777,60.609,0.12089384,-0.7780184,1.7095795,0.06322403,0.014485421,-0.01663153,1674.0,1694.0,1688.0,1684.0,1500.0,1500.0,900.0,900.0,1500.0,1500.0,1500.0,1500.0,0.07434352,0.006913284,0.0062466976,-7.0507765,-1.9672692,-5.6833687,0.350846
3227562397.0,47.39928529990502,8.548475935533954,60.591225,0.110594645,-0.7792323,1.7095875,-0.02214291,-0.0239198,-0.0009995863,1711.0,1669.0,1642.0,1712.0,1500.0,1500.0,900.0,900.0,1500.0,1500.0,1500.0,1500.0,-0.016694667,-0.00546389,0.016734859,-6.6782017,-1.9174446,-7.4985566,0.32947397
3228162397.0,47.39927795945412,8.548551676635313,60.582245,0.10299881,-0.78005594,1.7092768,0.11061966,-0.027930032,0.007424936,1735.0,1656.0,1682.0,1704.0,1500.0,1500.0,900.0,900.0,1500.0,1500.0,1500.0,1500.0,0.01518001,0.112553984,-0.012856611,-7.1018777,-1.9766469,-7.19603,0.32467198
3228562398.0,47.39927272957648,8.548602684865386,60.569298,0.10063085,-0.7803005,1.7084744,-0.06985486,0.02685553,-0.013635351,1678.0,1706.0,1705.0,1671.0,1500.0,1500.0,900.0,900.0,1500.0,1500.0,1500.0,1500.0,0.050154176,-0.060549837,0.014133472,-7.11846,-1.9440167,-7.726116,0.336392
3229162396.0,47.39926669626484,8.548677980809646,60.58976,0.113741875,-0.7788732,1.7105771,0.034952994,-0.00722895,-0.014127769,1685.0,1699.0,1663.0,1700.0,1500.0,1500.0,900.0,900.0,1500.0,1500.0,1500.0,1500.0,0.08963929,-0.01774176,-0.0105572,-7.113755,-2.968306,-5.3839407,0.3347172
3229562397.0,47.39926256787473,8.548727736609694,60.592308,0.10887104,-0.77942437,1.7118793,-0.046568796,-0.02957173,-0.008225843,1631.0,1721.0,1747.0,1615.0,1500.0,1500.0,900.0,900.0,1500.0,1500.0,1500.0,1500.0,0.09430138,-0.04322405,0.015672581,-6.751141,-3.2437596,-4.6972203,0.32507408
3230162397.0,47.39925646067182,8.548802381754587,60.575676,0.12815873,-0.7770947,1.7145598,0.03480389,0.009802352,0.0048286,1687.0,1678.0,1639.0,1720.0,1500.0,1500.0,900.0,900.0,1500.0,1500.0,1500.0,1500.0,0.034301437,-0.054549195,0.056494635,-7.3301954,0.39867148,-6.485267,0.332686
3230562396.0,47.3992519766752,8.548852180289671,60.57672,0.11294247,-0.7789654,1.7156392,0.034184564,0.004683238,-0.010250396,1700.0,1661.0,1636.0,1705.0,1500.0,1500.0,900.0,900.0,1500.0,1500.0,1500.0,1500.0,-0.061973706,0.09286684,0.028308222,-6.953319,-1.6530313,-7.558215,0.342462
3231162398.0,47.39924474177045,8.548928163560662,60.559387,0.1402672,-0.7694033,1.7164891,0.058741607,-0.0004300014,-0.009673333,1655.0,1722.0,1689.0,1688.0,1500.0,1500.0,900.0,900.0,1500.0,1500.0,1500.0,1500.0,0.02440481,-0.012277835,-0.0016242575,-7.018011,-0.3564434,-7.3881474,0.33012003
3231562397.0,47.39923973516296,8.548978009074283,60.562904,0.13166948,-0.7169522,1.7164333,0.0524705,0.1430148,0.0028375543,1659.0,1661.0,1644.0,1687.0,1500.0,1500.0,900.0,900.0,1500.0,1500.0,1500.0,1500.0,0.09271967,0.20199808,-0.033559382,-7.260335,-1.6892986,-5.794068,0.33927333
3232162397.0,47.39923161196448,8.549047682257404,60.570824,0.11612482,-0.6748783,1.7112318,0.045583013,0.099150315,-0.028814644,1610.0,1663.0,1665.0,1609.0,1500.0,1500.0,900.0,900.0,1500.0,1500.0,1500.0,1500.0,-0.10499022,0.078219034,-0.002129742,-7.2065134,-1.6496611,-6.9750443,0.35316068
3232562396.0,47.399227277037454,8.549092544264136,60.56684,0.10811659,-0.6368697,1.7110379,-0.07999585,0.08471279,-0.014446159,1602.0,1618.0,1632.0,1608.0,1500.0,1500.0,900.0,900.0,1500.0,1500.0,1500.0,1500.0,-0.056272417,0.020334847,-0.013574942,-7.185564,-1.4039598,-8.195064,0.33638173
3233162397.0,47.39922113697494,8.549157060076437,60.56153,0.12907204,-0.5630294,1.7110437,0.023107108,0.12468033,0.01152637,1637.0,1555.0,1556.0,1629.0,1500.0,1500.0,900.0,900.0,1500.0,1500.0,1500.0,1500.0,-0.09498202,0.084845595,0.0048398287,-6.3292,0.9177801,-7.005882,0.3198008
3233562397.0,47.39921726312011,8.549196315781382,60.563286,0.124901585,-0.511447,1.7104379,-0.0036424021,0.109998345,-0.026544634,1590.0,1536.0,1545.0,1600.0,1500.0,1500.0,900.0,900.0,1500.0,1500.0,1500.0,1500.0,-0.03724091,0.07258312,0.009169831,-6.2710342,-1.0047839,-7.7677917,0.329318
3234162397.0,47.399210469073154,8.549249248303681,60.557983,0.11017002,-0.42958075,1.6961491,-0.102737546,0.16206145,-0.044294562,1557.0,1544.0,1532.0,1597.0,1500.0,1500.0,900.0,900.0,1500.0,1500.0,1500.0,1500.0,-0.05781871,0.17863177,-0.072880246,-6.048458,0.100446105,-7.729434,0.34724402
3234562397.0,47.39920644027421,8.54927939934866,60.54424,0.08946382,-0.36833423,1.6779616,-0.17488201,0.15121739,-0.06320083,1563.0,1503.0,1535.0,1549.0,1500.0,1500.0,900.0,900.0,1500.0,1500.0,1500.0,1500.0,-0.090491906,0.17346027,-0.06507227,-5.2332087,0.944015,-7.237254,0.38053
3235162397.0,47.39920108467589,8.549316780482258,60.562866,0.06421446,-0.2889984,1.6148369,-0.13492288,0.16242354,-0.108580925,1531.0,1477.0,1508.0,1547.0,1500.0,1500.0,900.0,900.0,1500.0,1500.0,1500.0,1500.0,0.043960195,0.07892185,-0.094250925,-4.219328,-1.9522929,-9.445457,0.36708802
3235562419.0,47.39919928770031,8.549338308323561,60.580322,0.08862518,-0.24847612,1.5896628,0.039381515,0.18654886,-0.11959389,1480.0,1533.0,1546.0,1482.0,1500.0,1500.0,900.0,900.0,1500.0,1500.0,1500.0,1500.0,-0.10272606,0.16306464,-0.08727959,-3.7259214,-1.5066036,-9.2433605,0.365592
3236162396.0,47.39919682590031,8.549367127526319,60.583794,0.081755325,-0.12457241,1.5049729,-0.027240342,0.23650569,-0.115315646,1668.0,1657.0,1335.0,1320.0,1500.0,1500.0,900.0,900.0,1500.0,1500.0,1500.0,1500.0,0.014667263,0.1604831,-0.02067258,-3.0567498,-2.3779094,-9.647657,0.36012417
3236562396.0,47.3991938503366,8.549382869753504,60.59626,0.19397785,-0.11145011,1.8031477,0.31515667,0.24748233,0.69331455,1662.0,1663.0,1326.0,1361.0,1500.0,1500.0,900.0,900.0,1500.0,1500.0,1500.0,1500.0,0.51036936,0.20086125,0.7607996,-2.5119815,0.59814745,-9.453403,0.3683946
3237162397.0,47.39918658484985,8.549397836430071,60.61435,0.31434724,-0.30600864,2.3435621,0.24745187,0.006907025,1.0039922,1617.0,1558.0,1469.0,1473.0,1500.0,1500.0,900.0,900.0,1500.0,1500.0,1500.0,1500.0,0.27703184,-0.004263133,1.0372921,-2.5010304,0.100161105,-10.984421,0.36841398
3237562397.0,47.39917814161083,8.549402723659767,60.63539,0.24899784,-0.44534773,2.6576805,0.15862273,-0.14010987,0.91099924,1557.0,1624.0,1515.0,1538.0,1500.0,1500.0,900.0,900.0,1500.0,1500.0,1500.0,1500.0,0.18076125,-0.26197302,0.93951553,-2.8877106,2.3307033,-9.261383,0.36083198
3238162397.0,47.399158705799714,8.549406972309141,60.702614,0.12876785,-0.60083526,3.0600715,0.008468593,-0.2663979,0.7491377,1571.0,1621.0,1541.0,1530.0,1500.0,1500.0,900.0,900.0,1500.0,1500.0,1500.0,1500.0,0.12097472,-0.31954998,0.7301884,-3.2390552,0.45007163,-9.647566,0.37138957
3238562397.0,47.39914086194801,8.549406879395033,60.715126,0.027133094,-0.6336995,-2.965054,-0.13083582,-0.03460357,0.43616587,1482.0,1494.0,1726.0,1685.0,1500.0,1500.0,900.0,900.0,1500.0,1500.0,1500.0,1500.0,-0.10542809,0.000106269305,0.421986,-4.5276594,1.5043509,-9.786596,0.35723227
3239162396.0,47.3991091059812,8.549404067275281,60.71787,0.09928248,-0.6974304,-2.962911,0.06667427,-0.06300493,-0.17528479,1567.0,1577.0,1631.0,1663.0,1500.0,1500.0,900.0,900.0,1500.0,1500.0,1500.0,1500.0,-0.05017868,-0.099024415,-0.20923394,-4.312708,1.8560753,-8.986643,0.37137002
3239562397.0,47.39908597208021,8.549399882482023,60.69996,0.1354508,-0.7280591,-2.962263,0.060712527,-0.15959887,-0.15839878,1649.0,1625.0,1609.0,1664.0,1500.0,1500.0,900.0,900.0,1500.0,1500.0,1500.0,1500.0,0.18978314,-0.071929894,-0.18010764,-4.8297825,-0.8689913,-9.117778,0.3598618
3240162396.0,47.39904694636069,8.549391433953703,60.718132,0.14056286,-0.7753871,-2.9614766,-0.23616712,-0.110966206,-0.01861412,1675.0,1693.0,1659.0,1655.0,1500.0,1500.0,900.0,900.0,1500.0,1500.0,1500.0,1500.0,-0.14743567,-0.068675734,-0.03873125,-5.398836,-0.40020856,-7.3877077,0.38976794
3240562397.0,47.39901884937524,8.54938026030994,60.71879,0.07631037,-0.78247523,-2.9625185,-0.09264411,-0.01546227,0.0023393848,1630.0,1741.0,1694.0,1670.0,1500.0,1500.0,900.0,900.0,1500.0,1500.0,1500.0,1500.0,-0.15211345,0.06358799,0.027004668,-5.681983,0.08185281,-7.8176436,0.3603227
3241162396.0,47.39897320335383,8.549367263702157,60.73164,0.12883994,-0.75719887,-2.9630625,0.12470211,0.05667957,-0.025188716,1627.0,1706.0,1722.0,1620.0,1500.0,1500.0,900.0,900.0,1500.0,1500.0,1500.0,1500.0,0.025567483,0.09264796,-0.0071121715,-5.83489,-3.115994,-8.164558,0.35369998
3241562406.0,47.398941618539496,8.549359204983958,60.731625,0.16627508,-0.7402805,-2.9629464,-0.0055393362,0.05672406,-0.040008046,1622.0,1672.0,1619.0,1676.0,1500.0,1500.0,900.0,900.0,1500.0,1500.0,1500.0,1500.0,0.19013652,0.017372698,-0.04071897,-5.7126617,-0.7429674,-9.266563,0.35728002
3242162396.0,47.39889515315164,8.549343779251082,60.708183,0.14192967,-0.7632107,-2.9637988,-0.11785741,-0.12224279,0.0023721927,1618.0,1719.0,1693.0,1642.0,1500.0,1500.0,900.0,900.0,1500.0,1500.0,1500.0,1500.0,0.1137169,-0.08909594,0.0035233663,-7.019181,-2.0138276,-9.402868,0.36015803
3242562397.0,47.39886382766388,8.54933233621332,60.681458,0.14487399,-0.7747545,-2.9647965,0.09815936,-0.043022614,-0.005889751,1693.0,1661.0,1690.0,1671.0,1500.0,1500.0,900.0,900.0,1500.0,1500.0,1500.0,1500.0,0.05219591,0.010474173,-0.0011276222,-6.412974,-0.9670355,-5.9380445,0.36939198
3243162397.0,47.3988159390073,8.549315704594159,60.66021,0.11123316,-0.77916026,-2.9664934,0.064838916,-0.019546859,0.0050540688,1646.0,1717.0,1703.0,1668.0,1500.0,1500.0,900.0,900.0,1500.0,1500.0,1500.0,1500.0,0.077633806,-0.046505116,-0.012601869,-6.7392464,-1.3821495,-7.2474456,0.3611095
3243562397.0,47.39878299773943,8.549306864518451,60.662468,0.13055342,-0.77677786,-2.9667442,0.06748279,-0.01852206,-0.014836051,1680.0,1675.0,1678.0,1665.0,1500.0,1500.0,900.0,900.0,1500.0,1500.0,1500.0,1500.0,0.17572263,0.04021636,0.010357134,-6.2095423,0.37224352,-8.672436,0.35398585
3244162397.0,47.39873438665477,8.549292396014629,60.664505,0.1389187,-0.77562296,-2.967179,0.10132008,0.00983851,-0.021011708,1669.0,1684.0,1692.0,1648.0,1500.0,1500.0,900.0,900.0,1500.0,1500.0,1500.0,1500.0,0.11790578,-0.007050284,0.01299287,-7.1812663,-1.1409745,-6.8352575,0.359618
3244562397.0,47.3987024127832,8.549280569029158,60.648186,0.10991995,-0.7793078,-2.96843,0.013991511,-0.08935423,-0.0020605912,1674.0,1678.0,1689.0,1664.0,1500.0,1500.0,900.0,900.0,1500.0,1500.0,1500.0,1500.0,-0.19237393,-0.038553897,-0.04156645,-6.285344,-2.7741103,-7.1459656,0.37102997
3245162397.0,47.39865482749062,8.54926285212029,60.61902,0.08660209,-0.7816294,-2.9710314,0.022967294,-0.031073418,0.017288754,1696.0,1679.0,1699.0,1680.0,1500.0,1500.0,900.0,900.0,1500.0,1500.0,1500.0,1500.0,-0.06607195,-0.05430983,0.007360323,-6.202482,0.4096438,-6.9410243,0.36226797
3245562396.0,47.39862109711495,8.549253631326378,60.634373,0.10431881,-0.7799172,-2.9713204,0.024343565,-0.011760231,-0.0012237012,1673.0,1680.0,1638.0,1707.0,1500.0,1500.0,900.0,900.0,1500.0,1500.0,1500.0,1500.0,-0.066073544,0.008524003,-0.014924834,-6.2166367,-1.3195918,-8.683005,0.35032398
3246162397.0,47.398570678173705,8.549240436736381,60.6287,0.101939626,-0.78016603,-2.9714928,0.039512414,0.00010701038,-0.0007936944,1677.0,1687.0,1692.0,1660.0,1500.0,1500.0,900.0,900.0,1500.0,1500.0,1500.0,1500.0,0.096337244,-0.013330472,-0.010510855,-6.65578,-1.4014522,-7.8168116,0.32873398
3246562396.0,47.39853759566442,8.549232569428643,60.632812,0.098408125,-0.7805246,-2.9712553,0.050407514,-0.0038071924,0.017402707,1602.0,1730.0,1689.0,1636.0,1500.0,1500.0,900.0,900.0,1500.0,1500.0,1500.0,1500.0,-0.085958354,-0.001807507,0.019121427,-7.2183933,-0.62674046,-7.8756967,0.3344726
3247162398.0,47.39848784356085,8.549219619415032,60.63837,0.1090384,-0.77940595,-2.9713998,-0.13930506,0.012281111,0.0030777552,1651.0,1690.0,1696.0,1648.0,1500.0,1500.0,900.0,900.0,1500.0,1500.0,1500.0,1500.0,0.094518594,0.0043438245,-0.02064928,-6.934538,0.74090904,-8.58863,0.34137195
3247562396.0,47.398455099141735,8.549210586065538,60.622097,0.09455756,-0.7809007,-2.9717174,-0.10165048,-0.011836153,-0.025713462,1681.0,1661.0,1691.0,1646.0,1500.0,1500.0,900.0,900.0,1500.0,1500.0,1500.0,1500.0,-0.033329945,-0.020381661,0.013638872,-6.422208,-1.7635107,-7.57726,0.34111398
3248162396.0,47.39840597917305,8.549197387997221,60.591953,0.09804873,-0.78056043,-2.9720821,0.013913148,-0.040942606,-0.016431786,1663.0,1712.0,1692.0,1679.0,1500.0,1500.0,900.0,900.0,1500.0,1500.0,1500.0,1500.0,0.111183986,0.031202707,0.02890001,-6.375021,0.26702672,-8.281276,0.35180998
3248562397.0,47.398373161410326,8.54918818600137,60.603004,0.09459623,-0.78089714,-2.9724135,0.057658345,-0.012665879,0.021826144,1707.0,1638.0,1659.0,1699.0,1500.0,1500.0,900.0,900.0,1500.0,1500.0,1500.0,1500.0,0.1918863,-0.1261315,-0.009053113,-6.8535304,0.21022475,-7.9374,0.32633197
3249162396.0,47.39832308874416,8.54917519185396,60.617916,0.09747799,-0.7806169,-2.9727278,0.009417458,-0.01325085,0.011316258,1691.0,1665.0,1639.0,1710.0,1500.0,1500.0,900.0,900.0,1500.0,1500.0,1500.0,1500.0,-0.1362335,-0.020739222,0.0134484125,-6.8852806,0.19205725,-7.012474,0.33804798
3249562396.0,47.39828979843985,8.549167217975723,60.607853,0.08692682,-0.7816009,-2.9725392,0.1744084,-0.024820747,0.037246436,1676.0,1669.0,1694.0,1653.0,1500.0,1500.0,900.0,900.0,1500.0,1500.0,1500.0,1500.0,-0.07181744,0.03335965,0.008659391,-6.783368,1.5464733,-9.185425,0.33704
3250162397.0,47.398240504913495,8.549156147394301,60.552597,0.10296903,-0.78005916,-2.9717572,0.0028022085,-0.0021280954,0.001937363,1712.0,1646.0,1672.0,1706.0,1500.0,1500.0,900.0,900.0,1500.0,1500.0,1500.0,1500.0,-0.18474363,0.09130661,0.032055244,-6.924015,1.4971585,-7.5120716,0.3464995
3250562396.0,47.398207266322615,8.549147683350585,60.540703,0.102895826,-0.7800668,-2.9717913,-0.024919357,-0.036928724,0.009884453,1685.0,1706.0,1710.0,1669.0,1500.0,1500.0,900.0,900.0,1500.0,1500.0,1500.0,1500.0,-0.2843114,-0.014847123,0.026405234,-6.6793346,-0.96813864,-5.612522,0.33186722
3251162396.0,47.39815635265701,8.549136071011326,60.567795,0.09588458,-0.78077286,-2.9711814,-0.05182732,0.031951524,0.010336979,1677.0,1687.0,1713.0,1655.0,1500.0,1500.0,900.0,900.0,1500.0,1500.0,1500.0,1500.0,-0.03509251,0.061405167,-0.0020307077,-6.5555687,-0.3957591,-6.5927954,0.32708198
3251562397.0,47.3981225745071,8.549129418927425,60.591125,0.10570108,-0.77976984,-2.9698324,0.026107624,0.021241061,-0.011218044,1666.0,1685.0,1677.0,1677.0,1500.0,1500.0,900.0,900.0,1500.0,1500.0,1500.0,1500.0,0.06247216,-0.011128653,0.0056694103,-7.4834614,-1.6188804,-5.774007,0.329418
3252162396.0,47.39807158278268,8.549117003417688,60.598198,0.118953176,-0.7782557,-2.9694195,-0.036454316,0.02880585,0.0033169917,1647.0,1687.0,1673.0,1659.0,1500.0,1500.0,900.0,900.0,1500.0,1500.0,1500.0,1500.0,0.10639024,-0.070582375,-0.017869947,-7.1094065,0.6157787,-5.6634865,0.338184
3252562396.0,47.39803785082489,8.549108662650726,60.58732,0.12071174,-0.7780408,-2.9692063,0.13156778,0.009134978,0.009048113,1667.0,1700.0,1656.0,1699.0,1500.0,1500.0,900.0,900.0,1500.0,1500.0,1500.0,1500.0,0.016737016,0.014891018,0.010697031,-7.324625,-3.4279842,-6.6005363,0.321544
3253162396.0,47.39798736250028,8.549098284610299,60.564903,0.12893882,-0.77699214,-2.9673822,0.13037993,0.025509566,-0.04543944,1712.0,1651.0,1663.0,1699.0,1500.0,1500.0,900.0,900.0,1500.0,1500.0,1500.0,1500.0,0.029974205,0.014434478,-0.009109549,-6.9254975,-1.1210847,-7.5080066,0.32970798
3253562396.0,47.39795390571586,8.549089840496551,60.555023,0.11579638,-0.7786331,-2.9671335,-0.08759221,0.09156633,-0.01145688,1701.0,1690.0,1659.0,1718.0,1500.0,1500.0,900.0,900.0,1500.0,1500.0,1500.0,1500.0,0.022466563,0.08058534,0.019321568,-6.675265,-2.5579906,-7.5586166,0.34115255
3254162396.0,47.39790353143909,8.549074956717673,60.57424,0.10693795,-0.7796363,-2.9685054,0.03235108,-0.077671744,-0.017275145,1678.0,1693.0,1712.0,1638.0,1500.0,1500.0,900.0,900.0,1500.0,1500.0,1500.0,1500.0,0.25148147,0.06374267,-0.02029781,-7.058433,0.9727405,-7.1505375,0.33189654
3254562397.0,47.397870371563066,8.549064036967367,60.58145,0.09231674,-0.7811126,-2.97032,-0.025604283,-0.023505135,0.001920106,1650.0,1726.0,1702.0,1666.0,1500.0,1500.0,900.0,900.0,1500.0,1500.0,1500.0,1500.0,-0.113164894,0.050839376,0.0063027325,-6.903036,-0.4940359,-7.980987,0.331128
3255162397.0,47.397819833238735,8.549049140251688,60.61892,0.07882934,-0.78227824,-2.972091,-0.06054922,-0.015809784,-0.011919769,1627.0,1699.0,1736.0,1608.0,1500.0,1500.0,900.0,900.0,1500.0,1500.0,1500.0,1500.0,0.056175917,0.03025063,0.017050706,-6.961443,-0.7749265,-6.6644087,0.35285997
3255562396.0,47.39778658022793,8.549040645122442,60.602432,0.09593516,-0.7807679,-2.9721954,0.09160289,0.0007476084,0.0312784,1699.0,1666.0,1683.0,1677.0,1500.0,1500.0,900.0,900.0,1500.0,1500.0,1500.0,1500.0,0.07818619,-0.034774024,-0.018671837,-7.3420506,-0.6959717,-5.2953796,0.32739598
3256162397.0,47.39773726976216,8.549027951342138,60.576897,0.081343256,-0.78207517,-2.972399,0.07683785,-0.03568081,-0.0023666227,1689.0,1689.0,1690.0,1678.0,1500.0,1500.0,900.0,900.0,1500.0,1500.0,1500.0,1500.0,0.05346812,0.000322585,0.013979416,-6.8753667,-1.7381094,-8.201388,0.324566
3256562396.0,47.39770450403369,8.549019669942986,60.568443,0.08552857,-0.78172266,-2.972439,0.042066157,0.008806155,-0.01818018,1671.0,1719.0,1705.0,1675.0,1500.0,1500.0,900.0,900.0,1500.0,1500.0,1500.0,1500.0,0.033244617,0.017035618,0.024040394,-6.950074,-2.275918,-6.943986,0.34125203
3257162397.0,47.39765462776367,8.549009800526331,60.582947,0.09619259,-0.78074294,-2.969558,0.009137076,0.07989825,0.0050511453,1670.0,1706.0,1699.0,1667.0,1500.0,1500.0,900.0,900.0,1500.0,1500.0,1500.0,1500.0,0.10126143,-0.066987984,0.01765454,-6.39554,0.78394234,-5.8584466,0.569947
3257562396.0,47.39761980493522,8.549002515410983,60.586838,0.10761808,-0.77956223,-2.967642,-0.075986035,0.015009204,0.0013290014,1724.0,1645.0,1649.0,1707.0,1500.0,1500.0,900.0,900.0,1500.0,1500.0,1500.0,1500.0,-0.0876816,-0.09499354,-0.012828394,-6.6367273,-1.2524967,-4.5854683,0.7015765
3258162397.0,47.39756828616104,8.54898965127716,60.580326,0.093602665,-0.7809918,-2.9668598,0.10989897,0.032371897,-0.007954384,1723.0,1650.0,1666.0,1688.0,1500.0,1500.0,900.0,900.0,1500.0,1500.0,1500.0,1500.0,0.055730227,-0.01695741,-0.02038164,-6.534361,-1.8551478,-5.8340983,0.640224
3258562396.0,47.397534039431896,8.548981714870775,60.57022,0.095469095,-0.7808132,-2.9657211,-0.10699986,-0.032667585,0.015057989,1662.0,1712.0,1716.0,1636.0,1500.0,1500.0,900.0,900.0,1500.0,1500.0,1500.0,1500.0,0.13330144,-0.021788297,0.017340377,-6.557248,0.18468836,-6.013567,0.48412198
3259162397.0,47.397483093083295,8.548969148007975,60.552696,0.09108526,-0.78122693,-2.9642897,0.009807027,-0.0048225317,0.021055827,1686.0,1699.0,1708.0,1682.0,1500.0,1500.0,900.0,900.0,1500.0,1500.0,1500.0,1500.0,0.18136954,-0.021578694,0.02956478,-6.8038297,0.90335226,-8.546939,0.33247733
3259562397.0,47.39744920023252,8.548960299189817,60.534157,0.09087134,-0.7812464,-2.9641232,-0.11407728,0.01607145,-0.019748958,1737.0,1661.0,1678.0,1716.0,1500.0,1500.0,900.0,900.0,1500.0,1500.0,1500.0,1500.0,-0.040907655,-0.0076818313,0.0028902434,-6.7367563,-1.1654446,-7.027349,0.3343807
3260162397.0,47.39739955395457,8.548948996634998,60.56198,0.10134363,-0.7802274,-2.961143,0.033775717,0.040425,0.01508661,1719.0,1659.0,1683.0,1700.0,1500.0,1500.0,900.0,900.0,1500.0,1500.0,1500.0,1500.0,0.008274634,0.000897259,-0.0011000439,-7.629018,-2.0337465,-6.299324,0.33347797
3260562396.0,47.39736668798967,8.548940354686454,60.594208,0.11375912,-0.77603084,-2.9600794,0.04324241,-0.024661653,0.017374864,1696.0,1659.0,1664.0,1683.0,1500.0,1500.0,900.0,900.0,1500.0,1500.0,1500.0,1500.0,0.13632321,-0.08200074,0.006676083,-7.157793,-0.6782782,-7.5799747,0.3286705
3261162397.0,47.39731707746557,8.54892636324716,60.615116,0.12739633,-0.71449864,-2.961371,0.12419126,0.054319654,-0.0070168106,1651.0,1658.0,1704.0,1597.0,1500.0,1500.0,900.0,900.0,1500.0,1500.0,1500.0,1500.0,0.17648497,0.09286653,-0.022761589,-7.297142,-2.876672,-6.921714,0.34046274
3261562398.0,47.3972850499956,8.548917232410071,60.609356,0.11102695,-0.67422336,-2.962737,-0.011521411,0.10386863,0.006889022,1632.0,1613.0,1641.0,1611.0,1500.0,1500.0,900.0,900.0,1500.0,1500.0,1500.0,1500.0,0.15626296,0.110174514,-0.028198725,-6.888509,-0.1349302,-7.637348,0.333618
3262162396.0,47.39723891478124,8.548903032425486,60.595673,0.11315611,-0.61233014,-2.9693058,-0.09181812,0.10128801,0.005469314,1579.0,1622.0,1622.0,1610.0,1500.0,1500.0,900.0,900.0,1500.0,1500.0,1500.0,1500.0,0.045131516,0.06666,-0.02356505,-7.077339,-1.1338134,-7.461692,0.33760202
3262562397.0,47.39721078217408,8.548895431807995,60.60672,0.12500891,-0.5715724,-2.970812,0.07170158,0.11860438,-0.013536981,1602.0,1580.0,1591.0,1591.0,1500.0,1500.0,900.0,900.0,1500.0,1500.0,1500.0,1500.0,0.15433191,0.15735656,0.001203403,-6.4783435,0.67948264,-7.585575,0.333574
3263162396.0,47.39717328379498,8.548884982565815,60.622147,0.10506287,-0.5185827,-2.9752831,-0.08044687,0.17156062,-0.013105069,1580.0,1553.0,1582.0,1572.0,1500.0,1500.0,900.0,900.0,1500.0,1500.0,1500.0,1500.0,-0.089953415,0.10000665,-0.027174484,-6.330733,0.47519475,-8.206748,0.32742602
3263562397.0,47.39715083461639,8.548876452834097,60.61303,0.09021469,-0.46941063,-2.9877348,-0.11676153,0.09847858,-0.0702601,1548.0,1510.0,1519.0,1598.0,1500.0,1500.0,900.0,900.0,1500.0,1500.0,1500.0,1500.0,-0.14620078,0.11069647,-0.0556094,-5.0404058,0.5994943,-8.705992,0.35354
3264162397.0,47.39712019532234,8.548865896190424,60.588295,0.08631948,-0.3600661,-3.0251627,0.043158893,0.14971003,-0.059400436,1496.0,1562.0,1601.0,1479.0,1500.0,1500.0,900.0,900.0,1500.0,1500.0,1500.0,1500.0,-0.0071369046,0.15060931,-0.07111968,-4.7942247,-1.6761148,-8.188863,0.3512963
3264562396.0,47.39710233124202,8.548860478750747,60.59879,0.051175125,-0.27858952,-3.0603416,-0.10633416,0.11066371,-0.13290554,1500.0,1528.0,1546.0,1464.0,1500.0,1500.0,900.0,900.0,1500.0,1500.0,1500.0,1500.0,0.0698624,0.13240027,-0.10761748,-4.1515203,-0.058553576,-9.258319,0.34640092
3265162397.0,47.39707999875698,8.548857373496487,60.578556,0.068028994,-0.18515292,-3.0763037,-0.02780467,0.122700326,-0.022179892,1542.0,1474.0,1547.0,1500.0,1500.0,1500.0,900.0,900.0,1500.0,1500.0,1500.0,1500.0,-0.1988103,0.26093996,-0.010269765,-4.1453424,-0.008873284,-10.325199,0.350384
3265562396.0,47.397068828413474,8.548854034986695,60.614017,0.06880802,-0.14952114,-3.1252296,-0.1438862,0.086180784,-0.21541375,1456.0,1412.0,1508.0,1630.0,1500.0,1500.0,900.0,900.0,1500.0,1500.0,1500.0,1500.0,-0.21584648,-0.0027782912,-0.19652635,-3.091648,-1.4348099,-9.342272,0.34242332
3266162396.0,47.39705660699367,8.548848134002887,60.643196,0.19218932,-0.077276304,-2.8246226,0.33837205,0.15660542,0.7654787,1665.0,1625.0,1331.0,1372.0,1500.0,1500.0,900.0,900.0,1500.0,1500.0,1500.0,1500.0,0.32538143,0.18473469,0.793119,-2.0705116,0.3074136,-8.76232,0.37673277
3266562397.0,47.3970519714626,8.5488425910869,60.66942,0.3225219,-0.21536261,-2.5104344,0.33085585,-0.08277953,1.0201094,1639.0,1568.0,1422.0,1458.0,1500.0,1500.0,900.0,900.0,1500.0,1500.0,1500.0,1500.0,0.43756685,-0.08614396,0.9928176,-1.5546534,-0.4805214,-9.702414,0.35249197
3267162399.0,47.39704882895177,8.548824512925064,60.70114,0.31984124,-0.41514,-1.9669738,0.118920155,-0.07756428,0.91070545,1555.0,1605.0,1488.0,1549.0,1500.0,1500.0,900.0,900.0,1500.0,1500.0,1500.0,1500.0,0.21119435,-0.07666744,0.8842659,-2.1497629,-0.85218096,-10.257001,0.36483598
3267562396.0,47.39704961447062,8.548808239434203,60.709602,0.2527835,-0.4278023,-1.7404817,0.19982061,0.21462244,0.77483755,1636.0,1512.0,1533.0,1538.0,1500.0,1500.0,900.0,900.0,1500.0,1500.0,1500.0,1500.0,-0.08945747,0.31006145,0.74111205,-2.9685016,-1.6141804,-9.17967,0.35815078
3268162396.0,47.39705456851957,8.548778352168211,60.71293,0.034443248,-0.35386387,-1.2715375,-0.30629802,0.1574779,0.52532506,1499.0,1475.0,1585.0,1553.0,1500.0,1500.0,900.0,900.0,1500.0,1500.0,1500.0,1500.0,-0.20878461,0.20506689,0.48951444,-3.4905515,-1.8850926,-7.9343243,0.35803324
3268562398.0,47.39705798538534,8.548757620357557,60.741844,0.05696619,-0.35998943,-1.2715375,0.24759571,-0.14502731,-0.060479596,1466.0,1439.0,1577.0,1629.0,1500.0,1500.0,900.0,900.0,1500.0,1500.0,1500.0,1500.0,0.24943839,-0.11997927,-0.0697507,-3.69691,-0.10587454,-9.409188,0.363514
